{"type": "FeatureCollection", "features": [{"type": "Feature", "geometry": {"type": "Point", "coordinates": [-120.32063, 48.78622]}, "properties": {"source": "mrds", "name": "Billygoat", "type": "85: Polymetallic veins", "weight": 0.5}}, {"type": "Feature", "geometry": {"type": "Point", "coordinates": [-115.33263, 44.92682]}, "properties": {"source": "mrds", "name": "Yellow Pine Deposit", "type": "Unknown", "weight": 3.0}}, {"type": "Feature", "geometry": {"type": "Point", "coordinates": [-118.75114, 48.66651]}, "properties": {"source": "mrds", "name": "Last Chance", "type": "Unknown", "weight": 3.0}}, {"type": "Feature", "geometry": {"type": "Point", "coordinates": [-120.91785, 47.51649]}, "properties": {"source": "mrds", "name": "Bald Eagle & Gray Eagle", "type": "Unknown", "weight": 0.5}}, {"type": "Feature", "geometry": {"type": "Point", "coordinates": [-120.65728, 47.42065]}, "properties": {"source": "mrds", "name": "Caledonia", "type": "85: Polymetallic veins", "weight": 0.5}}, {"type": "Feature", "geometry": {"type": "Point", "coordinates": [-120.98312, 47.51288]}, "properties": {"source": "mrds", "name": "Humbug", "type": "85: Polymetallic veins", "weight": 0.5}}, {"type": "Feature", "geometry": {"type": "Point", "coordinates": [-120.58563, 48.21315]}, "properties": {"source": "mrds", "name": "Little Jap", "type": "85: Polymetallic veins", "weight": 0.5}}, {"type": "Feature", "geometry": {"type": "Point", "coordinates": [-120.74397, 48.19676]}, "properties": {"source": "mrds", "name": "Marcus Stein", "type": "Unknown", "weight": 0.5}}, {"type": "Feature", "geometry": {"type": "Point", "coordinates": [-120.98729, 47.5101]}, "properties": {"source": "mrds", "name": "Silver Fiend", "type": "85: Polymetallic veins", "weight": 0.5}}, {"type": "Feature", "geometry": {"type": "Point", "coordinates": [-120.58425, 48.21343]}, "properties": {"source": "mrds", "name": "Sunday Morning", "type": "85: Polymetallic veins", "weight": 3.0}}, {"type": "Feature", "geometry": {"type": "Point", "coordinates": [-120.98424, 47.51038]}, "properties": {"source": "mrds", "name": "White Star", "type": "85: Polymetallic veins", "weight": 0.5}}, {"type": "Feature", "geometry": {"type": "Point", "coordinates": [-120.54786, 48.19899]}, "properties": {"source": "mrds", "name": "Orphan Boy Prospect", "type": "85: Polymetallic veins", "weight": 0.5}}, {"type": "Feature", "geometry": {"type": "Point", "coordinates": [-120.98424, 47.51176]}, "properties": {"source": "mrds", "name": "Snook & Ellen Prospects", "type": "85: Polymetallic veins", "weight": 0.5}}, {"type": "Feature", "geometry": {"type": "Point", "coordinates": [-118.25111, 48.24985]}, "properties": {"source": "mrds", "name": "Advance Cabin", "type": "Unknown", "weight": 0.5}}, {"type": "Feature", "geometry": {"type": "Point", "coordinates": [-118.25112, 48.33318]}, "properties": {"source": "mrds", "name": "Black Hawk", "type": "Unknown", "weight": 0.5}}, {"type": "Feature", "geometry": {"type": "Point", "coordinates": [-118.25112, 48.33318]}, "properties": {"source": "mrds", "name": "Colorado", "type": "Unknown", "weight": 0.5}}, {"type": "Feature", "geometry": {"type": "Point", "coordinates": [-118.66781, 48.91652]}, "properties": {"source": "mrds", "name": "Comstock", "type": "Unknown", "weight": 0.5}}, {"type": "Feature", "geometry": {"type": "Point", "coordinates": [-118.25112, 48.41652]}, "properties": {"source": "mrds", "name": "Juliet Little Tom", "type": "Unknown", "weight": 0.5}}, {"type": "Feature", "geometry": {"type": "Point", "coordinates": [-118.25111, 48.24985]}, "properties": {"source": "mrds", "name": "Keystone", "type": "Unknown", "weight": 0.5}}, {"type": "Feature", "geometry": {"type": "Point", "coordinates": [-118.33445, 48.49985]}, "properties": {"source": "mrds", "name": "Kohler", "type": "Unknown", "weight": 0.5}}, {"type": "Feature", "geometry": {"type": "Point", "coordinates": [-118.25111, 48.24985]}, "properties": {"source": "mrds", "name": "New York", "type": "Unknown", "weight": 0.5}}, {"type": "Feature", "geometry": {"type": "Point", "coordinates": [-118.33445, 48.24985]}, "properties": {"source": "mrds", "name": "Old Nell", "type": "Unknown", "weight": 0.5}}, {"type": "Feature", "geometry": {"type": "Point", "coordinates": [-118.25111, 48.24985]}, "properties": {"source": "mrds", "name": "Perry", "type": "Unknown", "weight": 0.5}}, {"type": "Feature", "geometry": {"type": "Point", "coordinates": [-118.58447, 48.74985]}, "properties": {"source": "mrds", "name": "Pin Money", "type": "Unknown", "weight": 0.5}}, {"type": "Feature", "geometry": {"type": "Point", "coordinates": [-118.58445, 48.16651]}, "properties": {"source": "mrds", "name": "Polepick", "type": "Unknown", "weight": 0.5}}, {"type": "Feature", "geometry": {"type": "Point", "coordinates": [-118.66781, 48.66651]}, "properties": {"source": "mrds", "name": "Republic", "type": "Unknown", "weight": 3.0}}, {"type": "Feature", "geometry": {"type": "Point", "coordinates": [-118.41779, 48.24985]}, "properties": {"source": "mrds", "name": "Rosario", "type": "Unknown", "weight": 0.5}}, {"type": "Feature", "geometry": {"type": "Point", "coordinates": [-118.25111, 48.16652]}, "properties": {"source": "mrds", "name": "Silver Crown No. 1", "type": "Unknown", "weight": 0.5}}, {"type": "Feature", "geometry": {"type": "Point", "coordinates": [-118.41779, 48.41652]}, "properties": {"source": "mrds", "name": "Stray Dog", "type": "Unknown", "weight": 3.0}}, {"type": "Feature", "geometry": {"type": "Point", "coordinates": [-118.16778, 48.24985]}, "properties": {"source": "mrds", "name": "Summit", "type": "Unknown", "weight": 0.5}}, {"type": "Feature", "geometry": {"type": "Point", "coordinates": [-121.46009, 47.63537]}, "properties": {"source": "mrds", "name": "Cleopatra Group", "type": "85: Polymetallic veins", "weight": 0.5}}, {"type": "Feature", "geometry": {"type": "Point", "coordinates": [-121.4737, 47.63481]}, "properties": {"source": "mrds", "name": "Dawson Prospect", "type": "85: Polymetallic veins", "weight": 0.5}}, {"type": "Feature", "geometry": {"type": "Point", "coordinates": [-119.74178, 48.54814]}, "properties": {"source": "mrds", "name": "Chloride", "type": "Unknown", "weight": 0.5}}, {"type": "Feature", "geometry": {"type": "Point", "coordinates": [-121.41842, 47.71231]}, "properties": {"source": "mrds", "name": "Gold Mountain Prospect", "type": "85: Polymetallic veins", "weight": 0.5}}, {"type": "Feature", "geometry": {"type": "Point", "coordinates": [-121.57454, 47.65231]}, "properties": {"source": "mrds", "name": "Lennox", "type": "85: Polymetallic veins", "weight": 1.0}}, {"type": "Feature", "geometry": {"type": "Point", "coordinates": [-119.08447, 48.24984]}, "properties": {"source": "mrds", "name": "Andy O'Neil Andy O.", "type": "Unknown", "weight": 0.5}}, {"type": "Feature", "geometry": {"type": "Point", "coordinates": [-119.48034, 48.76345]}, "properties": {"source": "mrds", "name": "Antimony", "type": "Unknown", "weight": 0.5}}, {"type": "Feature", "geometry": {"type": "Point", "coordinates": [-120.14673, 48.15566]}, "properties": {"source": "mrds", "name": "Antimony Bell", "type": "180: Simple Sb (veins, pods, etc)", "weight": 3.0}}, {"type": "Feature", "geometry": {"type": "Point", "coordinates": [-119.08447, 48.24984]}, "properties": {"source": "mrds", "name": "Apache", "type": "Unknown", "weight": 0.5}}, {"type": "Feature", "geometry": {"type": "Point", "coordinates": [-119.74178, 48.54814]}, "properties": {"source": "mrds", "name": "Arizona", "type": "Unknown", "weight": 0.5}}, {"type": "Feature", "geometry": {"type": "Point", "coordinates": [-119.66784, 48.49983]}, "properties": {"source": "mrds", "name": "Arlington", "type": "Unknown", "weight": 3.0}}, {"type": "Feature", "geometry": {"type": "Point", "coordinates": [-119.5845, 48.74984]}, "properties": {"source": "mrds", "name": "Buckeye", "type": "Vein", "weight": 0.5}}, {"type": "Feature", "geometry": {"type": "Point", "coordinates": [-119.16783, 48.91651]}, "properties": {"source": "mrds", "name": "Carlquist", "type": "Unknown", "weight": 0.5}}, {"type": "Feature", "geometry": {"type": "Point", "coordinates": [-119.75117, 48.58316]}, "properties": {"source": "mrds", "name": "Chief Sunshine", "type": "Unknown", "weight": 3.0}}, {"type": "Feature", "geometry": {"type": "Point", "coordinates": [-120.17561, 48.18622]}, "properties": {"source": "mrds", "name": "Coyote Prospect", "type": "180: Simple Sb (veins, pods, etc)", "weight": 0.5}}, {"type": "Feature", "geometry": {"type": "Point", "coordinates": [-119.66784, 48.58316]}, "properties": {"source": "mrds", "name": "Hardscrabble", "type": "Unknown", "weight": 0.5}}, {"type": "Feature", "geometry": {"type": "Point", "coordinates": [-119.5845, 48.83317]}, "properties": {"source": "mrds", "name": "Horn Silver Arizona", "type": "Unknown", "weight": 3.0}}, {"type": "Feature", "geometry": {"type": "Point", "coordinates": [-119.5845, 48.83317]}, "properties": {"source": "mrds", "name": "Ivanhoe", "type": "Unknown", "weight": 3.0}}, {"type": "Feature", "geometry": {"type": "Point", "coordinates": [-120.18507, 48.19844]}, "properties": {"source": "mrds", "name": "Jumbo Prospect", "type": "180: Simple Sb (veins, pods, etc)", "weight": 0.5}}, {"type": "Feature", "geometry": {"type": "Point", "coordinates": [-119.66784, 48.49983]}, "properties": {"source": "mrds", "name": "Leonora", "type": "Unknown", "weight": 0.5}}, {"type": "Feature", "geometry": {"type": "Point", "coordinates": [-119.08447, 48.24984]}, "properties": {"source": "mrds", "name": "Little Chief", "type": "Unknown", "weight": 3.0}}, {"type": "Feature", "geometry": {"type": "Point", "coordinates": [-119.4845, 48.78317]}, "properties": {"source": "mrds", "name": "Lucky Knock Mine", "type": "Unknown", "weight": 3.0}}, {"type": "Feature", "geometry": {"type": "Point", "coordinates": [-119.75117, 48.58316]}, "properties": {"source": "mrds", "name": "Minnehaha", "type": "Unknown", "weight": 0.5}}, {"type": "Feature", "geometry": {"type": "Point", "coordinates": [-118.87778, 48.37611]}, "properties": {"source": "mrds", "name": "Mountain Boy", "type": "Unknown", "weight": 3.0}}, {"type": "Feature", "geometry": {"type": "Point", "coordinates": [-119.16783, 48.91651]}, "properties": {"source": "mrds", "name": "Olentangy", "type": "Unknown", "weight": 0.5}}, {"type": "Feature", "geometry": {"type": "Point", "coordinates": [-119.08447, 48.24984]}, "properties": {"source": "mrds", "name": "Panama", "type": "Unknown", "weight": 3.0}}, {"type": "Feature", "geometry": {"type": "Point", "coordinates": [-118.9178, 48.16651]}, "properties": {"source": "mrds", "name": "Par Value", "type": "Unknown", "weight": 0.5}}, {"type": "Feature", "geometry": {"type": "Point", "coordinates": [-119.75117, 48.58316]}, "properties": {"source": "mrds", "name": "Peacock", "type": "Unknown", "weight": 3.0}}, {"type": "Feature", "geometry": {"type": "Point", "coordinates": [-118.87444, 48.36222]}, "properties": {"source": "mrds", "name": "Ramore", "type": "Unknown", "weight": 0.5}}, {"type": "Feature", "geometry": {"type": "Point", "coordinates": [-119.50117, 48.83317]}, "properties": {"source": "mrds", "name": "Rich Bar", "type": "Unknown", "weight": 0.5}}, {"type": "Feature", "geometry": {"type": "Point", "coordinates": [-119.75118, 48.83316]}, "properties": {"source": "mrds", "name": "Ruby", "type": "Unknown", "weight": 3.0}}, {"type": "Feature", "geometry": {"type": "Point", "coordinates": [-119.75117, 48.58316]}, "properties": {"source": "mrds", "name": "Salmon River", "type": "Unknown", "weight": 0.5}}, {"type": "Feature", "geometry": {"type": "Point", "coordinates": [-119.75117, 48.49983]}, "properties": {"source": "mrds", "name": "Sonny Boy", "type": "Unknown", "weight": 3.0}}, {"type": "Feature", "geometry": {"type": "Point", "coordinates": [-120.18757, 48.21261]}, "properties": {"source": "mrds", "name": "Stibnite Prospect", "type": "180: Simple Sb (veins, pods, etc)", "weight": 0.5}}, {"type": "Feature", "geometry": {"type": "Point", "coordinates": [-119.74178, 48.54814]}, "properties": {"source": "mrds", "name": "Sunrise", "type": "Unknown", "weight": 0.5}}, {"type": "Feature", "geometry": {"type": "Point", "coordinates": [-118.92197, 48.37428]}, "properties": {"source": "mrds", "name": "Wasco", "type": "Unknown", "weight": 0.5}}, {"type": "Feature", "geometry": {"type": "Point", "coordinates": [-119.74178, 48.54814]}, "properties": {"source": "mrds", "name": "Windfall", "type": "Unknown", "weight": 0.5}}, {"type": "Feature", "geometry": {"type": "Point", "coordinates": [-117.5011, 48.83319]}, "properties": {"source": "mrds", "name": "La Sota Silver Crest", "type": "Unknown", "weight": 0.5}}, {"type": "Feature", "geometry": {"type": "Point", "coordinates": [-117.16775, 48.16653]}, "properties": {"source": "mrds", "name": "Lena Belle Prospect", "type": "Unknown", "weight": 0.5}}, {"type": "Feature", "geometry": {"type": "Point", "coordinates": [-117.25109, 48.41653]}, "properties": {"source": "mrds", "name": "Pinnel", "type": "Unknown", "weight": 0.5}}, {"type": "Feature", "geometry": {"type": "Point", "coordinates": [-121.69838, 48.04238]}, "properties": {"source": "mrds", "name": "Consolidated", "type": "Unknown", "weight": 0.5}}, {"type": "Feature", "geometry": {"type": "Point", "coordinates": [-118.16779, 48.49985]}, "properties": {"source": "mrds", "name": "Acme Mine", "type": "Unknown", "weight": 0.5}}, {"type": "Feature", "geometry": {"type": "Point", "coordinates": [-117.54694, 48.94847]}, "properties": {"source": "mrds", "name": "Anaconda", "type": "Vein", "weight": 3.0}}, {"type": "Feature", "geometry": {"type": "Point", "coordinates": [-118.16778, 48.16652]}, "properties": {"source": "mrds", "name": "Brooks", "type": "Unknown", "weight": 3.0}}, {"type": "Feature", "geometry": {"type": "Point", "coordinates": [-117.7011, 48.33318]}, "properties": {"source": "mrds", "name": "Chinto", "type": "Unknown", "weight": 0.5}}, {"type": "Feature", "geometry": {"type": "Point", "coordinates": [-118.08445, 48.66652]}, "properties": {"source": "mrds", "name": "Columbia River", "type": "Unknown", "weight": 3.0}}, {"type": "Feature", "geometry": {"type": "Point", "coordinates": [-118.08305, 48.37624]}, "properties": {"source": "mrds", "name": "Daisy - Tempest", "type": "Unknown", "weight": 3.0}}, {"type": "Feature", "geometry": {"type": "Point", "coordinates": [-117.58442, 48.24985]}, "properties": {"source": "mrds", "name": "Eagle Blue Star, Redwood", "type": "Unknown", "weight": 3.0}}, {"type": "Feature", "geometry": {"type": "Point", "coordinates": [-118.16779, 48.83318]}, "properties": {"source": "mrds", "name": "Easter Sunday", "type": "Unknown", "weight": 3.0}}, {"type": "Feature", "geometry": {"type": "Point", "coordinates": [-117.41777, 48.91653]}, "properties": {"source": "mrds", "name": "Frisco - Standard", "type": "Unknown", "weight": 3.0}}, {"type": "Feature", "geometry": {"type": "Point", "coordinates": [-118.16778, 48.16652]}, "properties": {"source": "mrds", "name": "Hoodoo", "type": "Unknown", "weight": 0.5}}, {"type": "Feature", "geometry": {"type": "Point", "coordinates": [-117.58443, 48.41652]}, "properties": {"source": "mrds", "name": "Jay Dee", "type": "Unknown", "weight": 3.0}}, {"type": "Feature", "geometry": {"type": "Point", "coordinates": [-117.66777, 48.66652]}, "properties": {"source": "mrds", "name": "Joe Day", "type": "Unknown", "weight": 0.5}}, {"type": "Feature", "geometry": {"type": "Point", "coordinates": [-117.7511, 48.41652]}, "properties": {"source": "mrds", "name": "Krug", "type": "Unknown", "weight": 3.0}}, {"type": "Feature", "geometry": {"type": "Point", "coordinates": [-117.7511, 48.41652]}, "properties": {"source": "mrds", "name": "Liberty Copper", "type": "Unknown", "weight": 0.5}}, {"type": "Feature", "geometry": {"type": "Point", "coordinates": [-117.55389, 48.95056]}, "properties": {"source": "mrds", "name": "Lucile Owen, Boundary Silver Lead", "type": "Unknown", "weight": 3.0}}, {"type": "Feature", "geometry": {"type": "Point", "coordinates": [-121.22785, 46.83899]}, "properties": {"source": "mrds", "name": "Richmond", "type": "85: Polymetallic veins", "weight": 0.5}}, {"type": "Feature", "geometry": {"type": "Point", "coordinates": [-117.75111, 48.83318]}, "properties": {"source": "mrds", "name": "Mountain View", "type": "Unknown", "weight": 3.0}}, {"type": "Feature", "geometry": {"type": "Point", "coordinates": [-117.66777, 48.41652]}, "properties": {"source": "mrds", "name": "Mullen", "type": "Unknown", "weight": 0.5}}, {"type": "Feature", "geometry": {"type": "Point", "coordinates": [-117.7511, 48.41652]}, "properties": {"source": "mrds", "name": "Nevada", "type": "Replacement", "weight": 3.0}}, {"type": "Feature", "geometry": {"type": "Point", "coordinates": [-118.16779, 48.83318]}, "properties": {"source": "mrds", "name": "Pomeroy", "type": "Unknown", "weight": 0.5}}, {"type": "Feature", "geometry": {"type": "Point", "coordinates": [-117.75111, 48.83318]}, "properties": {"source": "mrds", "name": "Providence", "type": "Unknown", "weight": 0.5}}, {"type": "Feature", "geometry": {"type": "Point", "coordinates": [-118.25111, 48.08318]}, "properties": {"source": "mrds", "name": "Saturday Night - Sunday Morning", "type": "Unknown", "weight": 3.0}}, {"type": "Feature", "geometry": {"type": "Point", "coordinates": [-117.58442, 48.24985]}, "properties": {"source": "mrds", "name": "Schrenberg", "type": "Unknown", "weight": 0.5}}, {"type": "Feature", "geometry": {"type": "Point", "coordinates": [-117.75111, 48.83318]}, "properties": {"source": "mrds", "name": "Sunset", "type": "Unknown", "weight": 0.5}}, {"type": "Feature", "geometry": {"type": "Point", "coordinates": [-117.83444, 48.74985]}, "properties": {"source": "mrds", "name": "Tile Creek Mining Co. Prospect", "type": "Unknown", "weight": 0.5}}, {"type": "Feature", "geometry": {"type": "Point", "coordinates": [-117.68443, 48.33318]}, "properties": {"source": "mrds", "name": "United Silver - Copper", "type": "Vein", "weight": 0.5}}, {"type": "Feature", "geometry": {"type": "Point", "coordinates": [-117.91777, 48.16652]}, "properties": {"source": "mrds", "name": "Wells Fargo", "type": "Unknown", "weight": 3.0}}, {"type": "Feature", "geometry": {"type": "Point", "coordinates": [-118.00111, 48.74985]}, "properties": {"source": "mrds", "name": "Young American Mine", "type": "Unknown", "weight": 3.0}}, {"type": "Feature", "geometry": {"type": "Point", "coordinates": [-118.08445, 48.74985]}, "properties": {"source": "mrds", "name": "Vanasse", "type": "Unknown", "weight": 0.5}}, {"type": "Feature", "geometry": {"type": "Point", "coordinates": [-117.75111, 48.74985]}, "properties": {"source": "mrds", "name": "Wall Street", "type": "Unknown", "weight": 0.5}}, {"type": "Feature", "geometry": {"type": "Point", "coordinates": [-117.75103, 44.78319]}, "properties": {"source": "mrds", "name": "Gray Eagle", "type": "Unknown", "weight": 3.0}}, {"type": "Feature", "geometry": {"type": "Point", "coordinates": [-118.21772, 45.06652]}, "properties": {"source": "mrds", "name": "Stibnite Parker", "type": "Unknown", "weight": 3.0}}, {"type": "Feature", "geometry": {"type": "Point", "coordinates": [-116.2177, 47.46654]}, "properties": {"source": "mrds", "name": "Big It Mine", "type": "Unknown", "weight": 3.0}}, {"type": "Feature", "geometry": {"type": "Point", "coordinates": [-115.31786, 44.94488]}, "properties": {"source": "mrds", "name": "Bonanza", "type": "Vein", "weight": 0.5}}, {"type": "Feature", "geometry": {"type": "Point", "coordinates": [-116.04043, 47.56767]}, "properties": {"source": "mrds", "name": "Washington-Idaho Mine", "type": "Vein", "weight": 1.0}}, {"type": "Feature", "geometry": {"type": "Point", "coordinates": [-115.74788, 45.33177]}, "properties": {"source": "mrds", "name": "Antimony Bar No. 1", "type": "Vein", "weight": 0.5}}, {"type": "Feature", "geometry": {"type": "Point", "coordinates": [-116.24854, 47.53407]}, "properties": {"source": "mrds", "name": "Coeurd'Alene and Pine Cr. Mine", "type": "Vein", "weight": 1.0}}, {"type": "Feature", "geometry": {"type": "Point", "coordinates": [-115.77535, 43.72848]}, "properties": {"source": "mrds", "name": "Mystery Claims", "type": "Vein", "weight": 0.5}}, {"type": "Feature", "geometry": {"type": "Point", "coordinates": [-115.59535, 43.96658]}, "properties": {"source": "mrds", "name": "Shine Property", "type": "Vein", "weight": 0.5}}, {"type": "Feature", "geometry": {"type": "Point", "coordinates": [-114.83453, 43.83209]}, "properties": {"source": "mrds", "name": "Even Chance Claim", "type": "Vein", "weight": 0.5}}, {"type": "Feature", "geometry": {"type": "Point", "coordinates": [-123.71894, 42.2176]}, "properties": {"source": "mrds", "name": "Foster Asbestos", "type": "Unknown", "weight": 0.5}}, {"type": "Feature", "geometry": {"type": "Point", "coordinates": [-118.19077, 44.86541]}, "properties": {"source": "mrds", "name": "Kelly", "type": "Vein", "weight": 0.5}}, {"type": "Feature", "geometry": {"type": "Point", "coordinates": [-118.19688, 44.84291]}, "properties": {"source": "mrds", "name": "North Pole", "type": "Unknown", "weight": 3.0}}, {"type": "Feature", "geometry": {"type": "Point", "coordinates": [-118.20772, 44.82763]}, "properties": {"source": "mrds", "name": "Columbia", "type": "Unknown", "weight": 1.0}}, {"type": "Feature", "geometry": {"type": "Point", "coordinates": [-117.92021, 44.92597]}, "properties": {"source": "mrds", "name": "Coyote Peak Prospect", "type": "Vein", "weight": 0.5}}, {"type": "Feature", "geometry": {"type": "Point", "coordinates": [-117.81132, 45.00486]}, "properties": {"source": "mrds", "name": "Johnson Mine", "type": "Unknown", "weight": 1.0}}, {"type": "Feature", "geometry": {"type": "Point", "coordinates": [-117.65547, 44.80347]}, "properties": {"source": "mrds", "name": "Columbian", "type": "Unknown", "weight": 0.5}}, {"type": "Feature", "geometry": {"type": "Point", "coordinates": [-117.74381, 44.80014]}, "properties": {"source": "mrds", "name": "Gray Eagle Mine", "type": "Unknown", "weight": 1.0}}, {"type": "Feature", "geometry": {"type": "Point", "coordinates": [-117.64825, 44.79347]}, "properties": {"source": "mrds", "name": "Hidden Treasure", "type": "Vein", "weight": 3.0}}, {"type": "Feature", "geometry": {"type": "Point", "coordinates": [-117.7427, 44.66847]}, "properties": {"source": "mrds", "name": "Abestos Occurrence", "type": "Unknown", "weight": 0.5}}, {"type": "Feature", "geometry": {"type": "Point", "coordinates": [-117.60047, 44.8243]}, "properties": {"source": "mrds", "name": "Sunset Group", "type": "Vein", "weight": 0.5}}, {"type": "Feature", "geometry": {"type": "Point", "coordinates": [-117.61546, 44.66569]}, "properties": {"source": "mrds", "name": "Alder Creek Asbestos Occurrence", "type": "Unknown", "weight": 0.5}}, {"type": "Feature", "geometry": {"type": "Point", "coordinates": [-117.19629, 44.58347]}, "properties": {"source": "mrds", "name": "Liddy Group", "type": "Vein", "weight": 0.5}}, {"type": "Feature", "geometry": {"type": "Point", "coordinates": [-118.34966, 44.89068]}, "properties": {"source": "mrds", "name": "La Belleview", "type": "Vein", "weight": 3.0}}, {"type": "Feature", "geometry": {"type": "Point", "coordinates": [-118.34911, 44.86207]}, "properties": {"source": "mrds", "name": "Monumental Mine", "type": "Vein", "weight": 1.0}}, {"type": "Feature", "geometry": {"type": "Point", "coordinates": [-118.30688, 44.81096]}, "properties": {"source": "mrds", "name": "Ibex & Bald Mountain", "type": "Vein", "weight": 3.0}}, {"type": "Feature", "geometry": {"type": "Point", "coordinates": [-118.55105, 44.74679]}, "properties": {"source": "mrds", "name": "King Tut Group", "type": "Vein", "weight": 1.0}}, {"type": "Feature", "geometry": {"type": "Point", "coordinates": [-118.70717, 44.72763]}, "properties": {"source": "mrds", "name": "W. H. Butler Claims", "type": "Vein", "weight": 0.5}}, {"type": "Feature", "geometry": {"type": "Point", "coordinates": [-118.78467, 44.70735]}, "properties": {"source": "mrds", "name": "Ophir Mine", "type": "Vein", "weight": 0.5}}, {"type": "Feature", "geometry": {"type": "Point", "coordinates": [-118.68077, 44.54596]}, "properties": {"source": "mrds", "name": "Standard", "type": "Vein", "weight": 1.0}}, {"type": "Feature", "geometry": {"type": "Point", "coordinates": [-118.60023, 44.71929]}, "properties": {"source": "mrds", "name": "Tempest", "type": "Vein", "weight": 1.0}}, {"type": "Feature", "geometry": {"type": "Point", "coordinates": [-118.66912, 44.76096]}, "properties": {"source": "mrds", "name": "Gold Eagle", "type": "Vein", "weight": 0.5}}, {"type": "Feature", "geometry": {"type": "Point", "coordinates": [-118.57745, 44.74429]}, "properties": {"source": "mrds", "name": "Ben Harrison", "type": "Unknown", "weight": 1.0}}, {"type": "Feature", "geometry": {"type": "Point", "coordinates": [-118.57188, 44.72541]}, "properties": {"source": "mrds", "name": "Morris Mine", "type": "Vein", "weight": 1.0}}, {"type": "Feature", "geometry": {"type": "Point", "coordinates": [-118.58633, 44.72235]}, "properties": {"source": "mrds", "name": "Tiger", "type": "Vein", "weight": 0.5}}, {"type": "Feature", "geometry": {"type": "Point", "coordinates": [-118.65327, 44.60541]}, "properties": {"source": "mrds", "name": "Big Butte Creek", "type": "Unknown", "weight": 0.5}}, {"type": "Feature", "geometry": {"type": "Point", "coordinates": [-118.54161, 44.72624]}, "properties": {"source": "mrds", "name": "Intermountain", "type": "Vein", "weight": 1.0}}, {"type": "Feature", "geometry": {"type": "Point", "coordinates": [-118.96606, 44.20652]}, "properties": {"source": "mrds", "name": "Bear Valley", "type": "Unknown", "weight": 0.5}}, {"type": "Feature", "geometry": {"type": "Point", "coordinates": [-117.87937, 45.02596]}, "properties": {"source": "mrds", "name": "North Powder Mine", "type": "Unknown", "weight": 1.0}}, {"type": "Feature", "geometry": {"type": "Point", "coordinates": [-118.20688, 44.95902]}, "properties": {"source": "mrds", "name": "Antone Creek Prospect", "type": "Unknown", "weight": 0.5}}, {"type": "Feature", "geometry": {"type": "Point", "coordinates": [-117.50046, 44.36097]}, "properties": {"source": "mrds", "name": "Towell Asbestos Claim", "type": "Replacement", "weight": 0.5}}, {"type": "Feature", "geometry": {"type": "Point", "coordinates": [-118.65744, 44.57429]}, "properties": {"source": "mrds", "name": "Wagonwheel", "type": "Vein", "weight": 0.5}}, {"type": "Feature", "geometry": {"type": "Point", "coordinates": [-118.22772, 44.80929]}, "properties": {"source": "mrds", "name": "Mayflower Prospect", "type": "Unknown", "weight": 1.0}}, {"type": "Feature", "geometry": {"type": "Point", "coordinates": [-120.6164, 44.75816]}, "properties": {"source": "mrds", "name": "Queen of Oregon", "type": "Unknown", "weight": 0.5}}, {"type": "Feature", "geometry": {"type": "Point", "coordinates": [-122.34338, 44.21093]}, "properties": {"source": "mrds", "name": "Lucky Boy", "type": "Unknown", "weight": 3.0}}, {"type": "Feature", "geometry": {"type": "Point", "coordinates": [-122.63726, 43.62315]}, "properties": {"source": "mrds", "name": "Sunset Mine", "type": "Unknown", "weight": 0.5}}, {"type": "Feature", "geometry": {"type": "Point", "coordinates": [-122.66671, 43.56482]}, "properties": {"source": "mrds", "name": "Tall Timber Veins", "type": "Unknown", "weight": 0.5}}, {"type": "Feature", "geometry": {"type": "Point", "coordinates": [-122.67059, 43.56399]}, "properties": {"source": "mrds", "name": "Risseu Property", "type": "Unknown", "weight": 0.5}}, {"type": "Feature", "geometry": {"type": "Point", "coordinates": [-122.77698, 43.06093]}, "properties": {"source": "mrds", "name": "B and H", "type": "Unknown", "weight": 0.5}}, {"type": "Feature", "geometry": {"type": "Point", "coordinates": [-123.18004, 42.66121]}, "properties": {"source": "mrds", "name": "Cynthia Tremolite", "type": "Replacement", "weight": 0.5}}, {"type": "Feature", "geometry": {"type": "Point", "coordinates": [-122.88891, 42.00539]}, "properties": {"source": "mrds", "name": "Ellinger Asbestos", "type": "Replacement", "weight": 1.0}}, {"type": "Feature", "geometry": {"type": "Point", "coordinates": [-118.29938, 44.81263]}, "properties": {"source": "mrds", "name": "Ibex Mine", "type": "Unknown", "weight": 3.0}}, {"type": "Feature", "geometry": {"type": "Point", "coordinates": [-118.37605, 44.85707]}, "properties": {"source": "mrds", "name": "Sheridan", "type": "Unknown", "weight": 1.0}}, {"type": "Feature", "geometry": {"type": "Point", "coordinates": [-118.29744, 44.87291]}, "properties": {"source": "mrds", "name": "Lead Lode", "type": "Unknown", "weight": 0.5}}, {"type": "Feature", "geometry": {"type": "Point", "coordinates": [-118.27299, 44.87318]}, "properties": {"source": "mrds", "name": "Stibnite", "type": "Unknown", "weight": 0.5}}, {"type": "Feature", "geometry": {"type": "Point", "coordinates": [-118.09826, 44.85485]}, "properties": {"source": "mrds", "name": "Maxwell", "type": "Unknown", "weight": 1.0}}, {"type": "Feature", "geometry": {"type": "Point", "coordinates": [-121.33788, 47.99704]}, "properties": {"source": "mrds", "name": "Foggy Mine", "type": "85: Polymetallic veins", "weight": 1.0}}, {"type": "Feature", "geometry": {"type": "Point", "coordinates": [-121.38038, 47.97982]}, "properties": {"source": "mrds", "name": "Justice Mine", "type": "85: Polymetallic veins", "weight": 3.0}}, {"type": "Feature", "geometry": {"type": "Point", "coordinates": [-121.36288, 47.9851]}, "properties": {"source": "mrds", "name": "Philo Prospect", "type": "85: Polymetallic veins", "weight": 0.5}}, {"type": "Feature", "geometry": {"type": "Point", "coordinates": [-121.45139, 47.95222]}, "properties": {"source": "mrds", "name": "Jasperson Prospect", "type": "Unknown", "weight": 0.5}}, {"type": "Feature", "geometry": {"type": "Point", "coordinates": [-121.53454, 48.04981]}, "properties": {"source": "mrds", "name": "Big Four Prospect", "type": "85: Polymetallic veins", "weight": 0.5}}, {"type": "Feature", "geometry": {"type": "Point", "coordinates": [-121.62261, 48.12064]}, "properties": {"source": "mrds", "name": "New Seattle Prospect", "type": "85: Polymetallic veins", "weight": 0.5}}, {"type": "Feature", "geometry": {"type": "Point", "coordinates": [-121.66983, 48.23009]}, "properties": {"source": "mrds", "name": "Gray Mare Prospect", "type": "85: Polymetallic veins", "weight": 0.5}}, {"type": "Feature", "geometry": {"type": "Point", "coordinates": [-121.68872, 48.23481]}, "properties": {"source": "mrds", "name": "Feldt Prospect", "type": "85: Polymetallic veins", "weight": 0.5}}, {"type": "Feature", "geometry": {"type": "Point", "coordinates": [-120.65972, 47.42472]}, "properties": {"source": "mrds", "name": "Blewett Camp", "type": "85: Polymetallic veins", "weight": 1.0}}, {"type": "Feature", "geometry": {"type": "Point", "coordinates": [-121.56, 48.25278]}, "properties": {"source": "mrds", "name": "Myrtle C.", "type": "Unknown", "weight": 0.5}}, {"type": "Feature", "geometry": {"type": "Point", "coordinates": [-118.0741, 44.51097]}, "properties": {"source": "mrds", "name": "Pioneer Prospect", "type": "Unknown", "weight": 0.5}}, {"type": "Feature", "geometry": {"type": "Point", "coordinates": [-123.51309, 42.00566]}, "properties": {"source": "mrds", "name": "Frog Pond", "type": "Unknown", "weight": 1.0}}, {"type": "Feature", "geometry": {"type": "Point", "coordinates": [-120.67362, 44.75039]}, "properties": {"source": "mrds", "name": "Red Jacket", "type": "Unknown", "weight": 0.5}}, {"type": "Feature", "geometry": {"type": "Point", "coordinates": [-118.75947, 48.67262]}, "properties": {"source": "mrds", "name": "Knob Hill Mine", "type": "150: Epithermal vein, Comstock", "weight": 3.0}}, {"type": "Feature", "geometry": {"type": "Point", "coordinates": [-118.21612, 48.48041]}, "properties": {"source": "mrds", "name": "Kohler", "type": "Vein", "weight": 0.5}}, {"type": "Feature", "geometry": {"type": "Point", "coordinates": [-118.23889, 48.24068]}, "properties": {"source": "mrds", "name": "Black Hawk", "type": "Vein", "weight": 0.5}}, {"type": "Feature", "geometry": {"type": "Point", "coordinates": [-118.20361, 48.22846]}, "properties": {"source": "mrds", "name": "Summit", "type": "Vein", "weight": 0.5}}, {"type": "Feature", "geometry": {"type": "Point", "coordinates": [-118.20639, 48.23568]}, "properties": {"source": "mrds", "name": "Robert E. Lee", "type": "Replacement", "weight": 1.0}}, {"type": "Feature", "geometry": {"type": "Point", "coordinates": [-118.19111, 48.21957]}, "properties": {"source": "mrds", "name": "Silver Crown #1", "type": "Vein", "weight": 0.5}}, {"type": "Feature", "geometry": {"type": "Point", "coordinates": [-118.21305, 48.22763]}, "properties": {"source": "mrds", "name": "Old Nell", "type": "Vein", "weight": 0.5}}, {"type": "Feature", "geometry": {"type": "Point", "coordinates": [-118.81921, 48.80345]}, "properties": {"source": "mrds", "name": "Hardscrabble Mountain", "type": "Unknown", "weight": 0.5}}, {"type": "Feature", "geometry": {"type": "Point", "coordinates": [-118.17669, 48.99179]}, "properties": {"source": "mrds", "name": "Laurier", "type": "Unknown", "weight": 0.5}}, {"type": "Feature", "geometry": {"type": "Point", "coordinates": [-118.02499, 48.11679]}, "properties": {"source": "mrds", "name": "Cleveland", "type": "Unknown", "weight": 1.0}}, {"type": "Feature", "geometry": {"type": "Point", "coordinates": [-119.52284, 48.84873]}, "properties": {"source": "mrds", "name": "Buckeye Claim", "type": "Vein", "weight": 0.5}}, {"type": "Feature", "geometry": {"type": "Point", "coordinates": [-119.57117, 48.87317]}, "properties": {"source": "mrds", "name": "Ivanhoe Mine", "type": "Vein", "weight": 1.0}}, {"type": "Feature", "geometry": {"type": "Point", "coordinates": [-119.75395, 48.58705]}, "properties": {"source": "mrds", "name": "Hardscrabble Mine", "type": "Unknown", "weight": 1.0}}, {"type": "Feature", "geometry": {"type": "Point", "coordinates": [-119.487, 48.7704]}, "properties": {"source": "mrds", "name": "Lucky Knock Mine", "type": "Replacement", "weight": 1.0}}, {"type": "Feature", "geometry": {"type": "Point", "coordinates": [-119.56673, 48.90623]}, "properties": {"source": "mrds", "name": "Bellevue Claims", "type": "Unknown", "weight": 1.0}}, {"type": "Feature", "geometry": {"type": "Point", "coordinates": [-119.01809, 48.83623]}, "properties": {"source": "mrds", "name": "Whitestone Mine", "type": "Replacement", "weight": 0.5}}, {"type": "Feature", "geometry": {"type": "Point", "coordinates": [-117.64916, 48.27707]}, "properties": {"source": "mrds", "name": "Mullen Mine", "type": "Unknown", "weight": 0.5}}, {"type": "Feature", "geometry": {"type": "Point", "coordinates": [-117.96916, 48.14874]}, "properties": {"source": "mrds", "name": "Wells -Fargo Mine", "type": "Vein", "weight": 1.0}}, {"type": "Feature", "geometry": {"type": "Point", "coordinates": [-118.02416, 48.11679]}, "properties": {"source": "mrds", "name": "Cleveland Mine", "type": "Replacement", "weight": 3.0}}, {"type": "Feature", "geometry": {"type": "Point", "coordinates": [-118.03445, 48.75846]}, "properties": {"source": "mrds", "name": "Young America  Mine", "type": "Unknown", "weight": 1.0}}, {"type": "Feature", "geometry": {"type": "Point", "coordinates": [-120.10839, 48.27789]}, "properties": {"source": "mrds", "name": "Bales  Mine", "type": "180: Simple Sb (veins, pods, etc)", "weight": 3.0}}, {"type": "Feature", "geometry": {"type": "Point", "coordinates": [-120.31644, 47.38177]}, "properties": {"source": "mrds", "name": "Lovitt", "type": "150: Epithermal vein, Comstock", "weight": 1.0}}, {"type": "Feature", "geometry": {"type": "Point", "coordinates": [-122.09972, 46.86667]}, "properties": {"source": "mrds", "name": "Mashel River Prospect", "type": "151: Epithermal vein, Sado", "weight": 0.5}}, {"type": "Feature", "geometry": {"type": "Point", "coordinates": [-121.93361, 47.315]}, "properties": {"source": "mrds", "name": "Royal Reward Mine", "type": "Unknown", "weight": 1.0}}, {"type": "Feature", "geometry": {"type": "Point", "coordinates": [-121.04035, 47.45593]}, "properties": {"source": "mrds", "name": "Camp Creek Mine", "type": "85: Polymetallic veins", "weight": 1.0}}, {"type": "Feature", "geometry": {"type": "Point", "coordinates": [-113.9147, 43.6425]}, "properties": {"source": "mrds", "name": "Eaglebird Mine", "type": "Unknown", "weight": 1.0}}, {"type": "Feature", "geometry": {"type": "Point", "coordinates": [-114.2894, 43.4711]}, "properties": {"source": "mrds", "name": "Minnie Moore and Silver Star-Queens Mine", "type": "Unknown", "weight": 1.0}}, {"type": "Feature", "geometry": {"type": "Point", "coordinates": [-123.58533, 42.6101]}, "properties": {"source": "mrds", "name": "Almeda", "type": "Unknown", "weight": 1.0}}, {"type": "Feature", "geometry": {"type": "Point", "coordinates": [-120.73973, 44.75233]}, "properties": {"source": "mrds", "name": "Oregon King Mine", "type": "Unknown", "weight": 1.0}}, {"type": "Feature", "geometry": {"type": "Point", "coordinates": [-120.65195, 44.74622]}, "properties": {"source": "mrds", "name": "Axehandle Mine", "type": "Unknown", "weight": 1.0}}, {"type": "Feature", "geometry": {"type": "Point", "coordinates": [-123.25337, 42.49565]}, "properties": {"source": "mrds", "name": "Ida Mine", "type": "Unknown", "weight": 1.0}}, {"type": "Feature", "geometry": {"type": "Point", "coordinates": [-123.12642, 42.06455]}, "properties": {"source": "mrds", "name": "Lowry Antimony Mine", "type": "Unknown", "weight": 1.0}}, {"type": "Feature", "geometry": {"type": "Point", "coordinates": [-122.55279, 42.16594]}, "properties": {"source": "mrds", "name": "Barron Mine", "type": "Unknown", "weight": 1.0}}, {"type": "Feature", "geometry": {"type": "Point", "coordinates": [-122.78836, 42.79843]}, "properties": {"source": "mrds", "name": "T and M Prospect", "type": "Unknown", "weight": 0.5}}, {"type": "Feature", "geometry": {"type": "Point", "coordinates": [-123.14864, 42.09289]}, "properties": {"source": "mrds", "name": "Blue Jay Prospect", "type": "Unknown", "weight": 1.0}}, {"type": "Feature", "geometry": {"type": "Point", "coordinates": [-124.14979, 42.75898]}, "properties": {"source": "mrds", "name": "Reyno Claim", "type": "Unknown", "weight": 0.5}}, {"type": "Feature", "geometry": {"type": "Point", "coordinates": [-122.72141, 42.04261]}, "properties": {"source": "mrds", "name": "H.P. Antimony", "type": "Vein", "weight": 0.5}}, {"type": "Feature", "geometry": {"type": "Point", "coordinates": [-123.15475, 42.06594]}, "properties": {"source": "mrds", "name": "Antimony Lode", "type": "Unknown", "weight": 0.5}}, {"type": "Feature", "geometry": {"type": "Point", "coordinates": [-123.06141, 42.00733]}, "properties": {"source": "mrds", "name": "Bonnie Asbestos", "type": "Unknown", "weight": 0.5}}, {"type": "Feature", "geometry": {"type": "Point", "coordinates": [-122.77502, 42.059]}, "properties": {"source": "mrds", "name": "Briner Property", "type": "Unknown", "weight": 0.5}}, {"type": "Feature", "geometry": {"type": "Point", "coordinates": [-123.1317, 42.05316]}, "properties": {"source": "mrds", "name": "Antimony Prospect", "type": "Vein", "weight": 0.5}}, {"type": "Feature", "geometry": {"type": "Point", "coordinates": [-120.80899, 48.66899]}, "properties": {"source": "mrds", "name": "Gold Hill Mine", "type": "85: Polymetallic veins", "weight": 1.0}}, {"type": "Feature", "geometry": {"type": "Point", "coordinates": [-121.80596, 48.8987]}, "properties": {"source": "mrds", "name": "Great Excelsior Mine", "type": "85: Polymetallic veins", "weight": 3.0}}, {"type": "Feature", "geometry": {"type": "Point", "coordinates": [-121.44729, 46.76788]}, "properties": {"source": "mrds", "name": "Reeves Prospect", "type": "180: Simple Sb (veins, pods, etc)", "weight": 0.5}}, {"type": "Feature", "geometry": {"type": "Point", "coordinates": [-122.36644, 44.58898]}, "properties": {"source": "mrds", "name": "Yellowbottom-Boulder Creek Area", "type": "85: Polymetallic veins", "weight": 0.5}}, {"type": "Feature", "geometry": {"type": "Point", "coordinates": [-121.35232, 47.98843]}, "properties": {"source": "mrds", "name": "Hilda", "type": "85: Polymetallic veins", "weight": 0.5}}, {"type": "Feature", "geometry": {"type": "Point", "coordinates": [-121.36982, 47.98093]}, "properties": {"source": "mrds", "name": "Mystery", "type": "85: Polymetallic veins", "weight": 1.0}}, {"type": "Feature", "geometry": {"type": "Point", "coordinates": [-121.35621, 47.98426]}, "properties": {"source": "mrds", "name": "Pica", "type": "85: Polymetallic veins", "weight": 0.5}}, {"type": "Feature", "geometry": {"type": "Point", "coordinates": [-121.38621, 47.96899]}, "properties": {"source": "mrds", "name": "Seventy-Four", "type": "85: Polymetallic veins", "weight": 0.5}}, {"type": "Feature", "geometry": {"type": "Point", "coordinates": [-121.38538, 47.96676]}, "properties": {"source": "mrds", "name": "Congress", "type": "85: Polymetallic veins", "weight": 0.5}}, {"type": "Feature", "geometry": {"type": "Point", "coordinates": [-121.4051, 47.92426]}, "properties": {"source": "mrds", "name": "Daisy Mine", "type": "85: Polymetallic veins", "weight": 0.5}}, {"type": "Feature", "geometry": {"type": "Point", "coordinates": [-121.3551, 48.01371]}, "properties": {"source": "mrds", "name": "East Standard", "type": "85: Polymetallic veins", "weight": 0.5}}, {"type": "Feature", "geometry": {"type": "Point", "coordinates": [-121.35538, 48.00204]}, "properties": {"source": "mrds", "name": "Ida", "type": "85: Polymetallic veins", "weight": 0.5}}, {"type": "Feature", "geometry": {"type": "Point", "coordinates": [-121.36538, 47.98732]}, "properties": {"source": "mrds", "name": "Hydra", "type": "85: Polymetallic veins", "weight": 0.5}}, {"type": "Feature", "geometry": {"type": "Point", "coordinates": [-121.36454, 47.98621]}, "properties": {"source": "mrds", "name": "Tuscola", "type": "85: Polymetallic veins", "weight": 0.5}}, {"type": "Feature", "geometry": {"type": "Point", "coordinates": [-121.36177, 47.98343]}, "properties": {"source": "mrds", "name": "Portland No. 2", "type": "85: Polymetallic veins", "weight": 0.5}}, {"type": "Feature", "geometry": {"type": "Point", "coordinates": [-121.36149, 47.98204]}, "properties": {"source": "mrds", "name": "Washington", "type": "85: Polymetallic veins", "weight": 0.5}}, {"type": "Feature", "geometry": {"type": "Point", "coordinates": [-121.3651, 47.97982]}, "properties": {"source": "mrds", "name": "Ixl", "type": "85: Polymetallic veins", "weight": 0.5}}, {"type": "Feature", "geometry": {"type": "Point", "coordinates": [-121.37065, 47.98343]}, "properties": {"source": "mrds", "name": "Portland No. 1", "type": "85: Polymetallic veins", "weight": 0.5}}, {"type": "Feature", "geometry": {"type": "Point", "coordinates": [-121.37177, 47.97093]}, "properties": {"source": "mrds", "name": "Ranger", "type": "85: Polymetallic veins", "weight": 0.5}}, {"type": "Feature", "geometry": {"type": "Point", "coordinates": [-120.70563, 48.18649]}, "properties": {"source": "mrds", "name": "Sevenmile Antimony", "type": "85: Polymetallic veins", "weight": 0.5}}, {"type": "Feature", "geometry": {"type": "Point", "coordinates": [-121.51342, 47.69481]}, "properties": {"source": "mrds", "name": "Apex", "type": "85: Polymetallic veins", "weight": 1.0}}, {"type": "Feature", "geometry": {"type": "Point", "coordinates": [-121.52732, 47.69814]}, "properties": {"source": "mrds", "name": "Damon and Pythias", "type": "85: Polymetallic veins", "weight": 0.5}}, {"type": "Feature", "geometry": {"type": "Point", "coordinates": [-124.112, 42.5912]}, "properties": {"source": "mrds", "name": "Triple Asbestos Prospect", "type": "Unknown", "weight": 0.5}}, {"type": "Feature", "geometry": {"type": "Point", "coordinates": [-122.78503, 42.75954]}, "properties": {"source": "mrds", "name": "T&M Antimony", "type": "Unknown", "weight": 0.5}}, {"type": "Feature", "geometry": {"type": "Point", "coordinates": [-123.0817, 42.4926]}, "properties": {"source": "mrds", "name": "Quartz-Serpentine Pit", "type": "Unknown", "weight": 1.0}}, {"type": "Feature", "geometry": {"type": "Point", "coordinates": [-123.15114, 42.2665]}, "properties": {"source": "mrds", "name": "Blue Jay Antimony", "type": "Unknown", "weight": 1.0}}, {"type": "Feature", "geometry": {"type": "Point", "coordinates": [-123.23893, 42.3401]}, "properties": {"source": "mrds", "name": "Briner", "type": "Unknown", "weight": 0.5}}, {"type": "Feature", "geometry": {"type": "Point", "coordinates": [-122.92701, 44.49064]}, "properties": {"source": "mrds", "name": "Suing", "type": "Unknown", "weight": 0.5}}, {"type": "Feature", "geometry": {"type": "Point", "coordinates": [-118.20716, 45.08679]}, "properties": {"source": "mrds", "name": "Lone Star", "type": "Unknown", "weight": 0.5}}, {"type": "Feature", "geometry": {"type": "Point", "coordinates": [-118.18917, 48.23818]}, "properties": {"source": "mrds", "name": "Silver Leaf", "type": "Vein", "weight": 0.5}}, {"type": "Feature", "geometry": {"type": "Point", "coordinates": [-121.46009, 47.63537]}, "properties": {"source": "mrds", "name": "Cleopatra Group", "type": "Unknown", "weight": 0.5}}, {"type": "Feature", "geometry": {"type": "Point", "coordinates": [-121.42981, 47.70731]}, "properties": {"source": "mrds", "name": "Grand Central", "type": "Vein", "weight": 0.5}}, {"type": "Feature", "geometry": {"type": "Point", "coordinates": [-121.4012, 47.69843]}, "properties": {"source": "mrds", "name": "Great Republic", "type": "Vein", "weight": 0.5}}, {"type": "Feature", "geometry": {"type": "Point", "coordinates": [-120.1809, 48.20094]}, "properties": {"source": "mrds", "name": "Antimony Queen", "type": "Unknown", "weight": 1.0}}, {"type": "Feature", "geometry": {"type": "Point", "coordinates": [-120.10839, 48.27789]}, "properties": {"source": "mrds", "name": "Bales", "type": "Unknown", "weight": 1.0}}, {"type": "Feature", "geometry": {"type": "Point", "coordinates": [-119.57506, 48.87484]}, "properties": {"source": "mrds", "name": "Ivanhoe", "type": "Vein", "weight": 1.0}}, {"type": "Feature", "geometry": {"type": "Point", "coordinates": [-119.48673, 48.77095]}, "properties": {"source": "mrds", "name": "Lucky Knock", "type": "Vein", "weight": 1.0}}, {"type": "Feature", "geometry": {"type": "Point", "coordinates": [-118.86892, 48.37623]}, "properties": {"source": "mrds", "name": "Mountain Boy", "type": "Unknown", "weight": 1.0}}, {"type": "Feature", "geometry": {"type": "Point", "coordinates": [-119.74117, 48.50566]}, "properties": {"source": "mrds", "name": "Nevada", "type": "Vein", "weight": 1.0}}, {"type": "Feature", "geometry": {"type": "Point", "coordinates": [-119.0292, 48.15456]}, "properties": {"source": "mrds", "name": "Panama", "type": "Vein", "weight": 1.0}}, {"type": "Feature", "geometry": {"type": "Point", "coordinates": [-119.74228, 48.50705]}, "properties": {"source": "mrds", "name": "Peacock", "type": "Vein", "weight": 1.0}}, {"type": "Feature", "geometry": {"type": "Point", "coordinates": [-118.1375, 47.98568]}, "properties": {"source": "mrds", "name": "Orazada", "type": "Unknown", "weight": 0.5}}, {"type": "Feature", "geometry": {"type": "Point", "coordinates": [-121.80596, 48.8987]}, "properties": {"source": "mrds", "name": "Great Excelsior", "type": "Unknown", "weight": 0.5}}, {"type": "Feature", "geometry": {"type": "Point", "coordinates": [-116.04463, 47.50177]}, "properties": {"source": "mrds", "name": "Silver Summit Mine", "type": "HYDROTHERMAL VEIN AND REPLACEMENT", "weight": 1.0}}, {"type": "Feature", "geometry": {"type": "Point", "coordinates": [-114.10199, 44.95231]}, "properties": {"source": "mrds", "name": "Iron Creek Deposit", "type": "Unknown", "weight": 1.0}}, {"type": "Feature", "geometry": {"type": "Point", "coordinates": [-115.77785, 43.83548]}, "properties": {"source": "mrds", "name": "Antimony Prospect", "type": "Unknown", "weight": 0.5}}, {"type": "Feature", "geometry": {"type": "Point", "coordinates": [-116.02902, 43.93766]}, "properties": {"source": "mrds", "name": "Mountain Chief Mine", "type": "Vein", "weight": 3.0}}, {"type": "Feature", "geometry": {"type": "Point", "coordinates": [-115.68515, 43.90378]}, "properties": {"source": "mrds", "name": "Hayfork Mine", "type": "Unknown", "weight": 1.0}}, {"type": "Feature", "geometry": {"type": "Point", "coordinates": [-116.69139, 42.90417]}, "properties": {"source": "mrds", "name": "Boulder Creek Prospect", "type": "Vein", "weight": 0.5}}, {"type": "Feature", "geometry": {"type": "Point", "coordinates": [-116.68037, 43.10988]}, "properties": {"source": "mrds", "name": "Black Horse Prospect", "type": "Unknown", "weight": 0.5}}, {"type": "Feature", "geometry": {"type": "Point", "coordinates": [-116.70597, 42.87155]}, "properties": {"source": "mrds", "name": "Demming Mine", "type": "Vein", "weight": 1.0}}, {"type": "Feature", "geometry": {"type": "Point", "coordinates": [-116.77847, 42.91908]}, "properties": {"source": "mrds", "name": "Rising Star Mine", "type": "Vein", "weight": 1.0}}, {"type": "Feature", "geometry": {"type": "Point", "coordinates": [-116.73787, 43.07348]}, "properties": {"source": "mrds", "name": "Slacks Mountain Prospects", "type": "Vein", "weight": 0.5}}, {"type": "Feature", "geometry": {"type": "Point", "coordinates": [-116.85375, 43.01321]}, "properties": {"source": "mrds", "name": "Henrietta  Mine", "type": "Vein", "weight": 1.0}}, {"type": "Feature", "geometry": {"type": "Point", "coordinates": [-116.77457, 42.92958]}, "properties": {"source": "mrds", "name": "Silver Queen Mine", "type": "Vein", "weight": 1.0}}, {"type": "Feature", "geometry": {"type": "Point", "coordinates": [-116.48435, 48.13956]}, "properties": {"source": "mrds", "name": "Talache Mine", "type": "Unknown", "weight": 3.0}}, {"type": "Feature", "geometry": {"type": "Point", "coordinates": [-116.50967, 48.15375]}, "properties": {"source": "mrds", "name": "Silver Butte Mine", "type": "Vein", "weight": 3.0}}, {"type": "Feature", "geometry": {"type": "Point", "coordinates": [-116.19355, 48.17207]}, "properties": {"source": "mrds", "name": "Eberly Prospect", "type": "Unknown", "weight": 0.5}}, {"type": "Feature", "geometry": {"type": "Point", "coordinates": [-116.19465, 48.16097]}, "properties": {"source": "mrds", "name": "Miller Mine", "type": "Unknown", "weight": 1.0}}, {"type": "Feature", "geometry": {"type": "Point", "coordinates": [-116.23677, 43.89408]}, "properties": {"source": "mrds", "name": "Topeka Prospect", "type": "Unknown", "weight": 0.5}}, {"type": "Feature", "geometry": {"type": "Point", "coordinates": [-115.11843, 43.77349]}, "properties": {"source": "mrds", "name": "Minerva Mine", "type": "Unknown", "weight": 1.0}}, {"type": "Feature", "geometry": {"type": "Point", "coordinates": [-116.25427, 43.89658]}, "properties": {"source": "mrds", "name": "Hall's Claim", "type": "Unknown", "weight": 0.5}}, {"type": "Feature", "geometry": {"type": "Point", "coordinates": [-116.22677, 43.90158]}, "properties": {"source": "mrds", "name": "Apex Prospect", "type": "Unknown", "weight": 0.5}}, {"type": "Feature", "geometry": {"type": "Point", "coordinates": [-117.07271, 44.57176]}, "properties": {"source": "mrds", "name": "Eagan Mine", "type": "Unknown", "weight": 1.0}}, {"type": "Feature", "geometry": {"type": "Point", "coordinates": [-116.16215, 48.15404]}, "properties": {"source": "mrds", "name": "Pier & Cady Mine", "type": "Unknown", "weight": 1.0}}, {"type": "Feature", "geometry": {"type": "Point", "coordinates": [-117.06041, 44.56046]}, "properties": {"source": "mrds", "name": "Silver Still Mine", "type": "Unknown", "weight": 3.0}}, {"type": "Feature", "geometry": {"type": "Point", "coordinates": [-113.07365, 42.09492]}, "properties": {"source": "mrds", "name": "Silver Hills Mine", "type": "Unknown", "weight": 1.0}}, {"type": "Feature", "geometry": {"type": "Point", "coordinates": [-114.27731, 43.67099]}, "properties": {"source": "mrds", "name": "Independence Mine", "type": "Vein", "weight": 1.0}}, {"type": "Feature", "geometry": {"type": "Point", "coordinates": [-114.65532, 43.99659]}, "properties": {"source": "mrds", "name": "85 NW Claim", "type": "Vein", "weight": 1.0}}, {"type": "Feature", "geometry": {"type": "Point", "coordinates": [-114.2837, 43.46409]}, "properties": {"source": "mrds", "name": "Penobscot Mine", "type": "Unknown", "weight": 1.0}}, {"type": "Feature", "geometry": {"type": "Point", "coordinates": [-114.2772, 43.4586]}, "properties": {"source": "mrds", "name": "Mc Irvin Prospect", "type": "Vein", "weight": 0.5}}, {"type": "Feature", "geometry": {"type": "Point", "coordinates": [-114.63202, 43.87239]}, "properties": {"source": "mrds", "name": "Ford Prospect", "type": "Vein", "weight": 0.5}}, {"type": "Feature", "geometry": {"type": "Point", "coordinates": [-115.36814, 43.87428]}, "properties": {"source": "mrds", "name": "Deer Park Group", "type": "Unknown", "weight": 1.0}}, {"type": "Feature", "geometry": {"type": "Point", "coordinates": [-115.36094, 43.85848]}, "properties": {"source": "mrds", "name": "West Fork Exchange Prospect", "type": "Vein", "weight": 1.0}}, {"type": "Feature", "geometry": {"type": "Point", "coordinates": [-115.35844, 43.85428]}, "properties": {"source": "mrds", "name": "Reno Claims Mine", "type": "Vein", "weight": 1.0}}, {"type": "Feature", "geometry": {"type": "Point", "coordinates": [-115.34454, 43.85958]}, "properties": {"source": "mrds", "name": "Hermada Antimony Mine", "type": "Vein", "weight": 1.0}}, {"type": "Feature", "geometry": {"type": "Point", "coordinates": [-114.84343, 43.87489]}, "properties": {"source": "mrds", "name": "Glory Group Prospect", "type": "Unknown", "weight": 0.5}}, {"type": "Feature", "geometry": {"type": "Point", "coordinates": [-114.82402, 43.80379]}, "properties": {"source": "mrds", "name": "Webfoot Mine", "type": "Unknown", "weight": 3.0}}, {"type": "Feature", "geometry": {"type": "Point", "coordinates": [-114.87953, 43.86129]}, "properties": {"source": "mrds", "name": "Columbia, Myrtie & Frankie Claims Mine", "type": "Vein", "weight": 1.0}}, {"type": "Feature", "geometry": {"type": "Point", "coordinates": [-114.1933, 43.6864]}, "properties": {"source": "mrds", "name": "Broadway Mine", "type": "Vein", "weight": 0.5}}, {"type": "Feature", "geometry": {"type": "Point", "coordinates": [-114.58512, 44.17159]}, "properties": {"source": "mrds", "name": "Disgust Group", "type": "Unknown", "weight": 1.0}}, {"type": "Feature", "geometry": {"type": "Point", "coordinates": [-114.65312, 44.06459]}, "properties": {"source": "mrds", "name": "Timberline Prospect", "type": "Vein", "weight": 1.0}}, {"type": "Feature", "geometry": {"type": "Point", "coordinates": [-114.67202, 44.07799]}, "properties": {"source": "mrds", "name": "White Cloud Prospect", "type": "Unknown", "weight": 1.0}}, {"type": "Feature", "geometry": {"type": "Point", "coordinates": [-114.63812, 44.01459]}, "properties": {"source": "mrds", "name": "Iope Group", "type": "Unknown", "weight": 1.0}}, {"type": "Feature", "geometry": {"type": "Point", "coordinates": [-115.33263, 44.92682]}, "properties": {"source": "mrds", "name": "Yellow Pine Mine", "type": "Unknown", "weight": 1.0}}, {"type": "Feature", "geometry": {"type": "Point", "coordinates": [-114.78653, 44.28739]}, "properties": {"source": "mrds", "name": "Alta Prospects", "type": "Unknown", "weight": 1.0}}, {"type": "Feature", "geometry": {"type": "Point", "coordinates": [-114.5839, 44.1347]}, "properties": {"source": "mrds", "name": "Livingston Mine", "type": "Unknown", "weight": 1.0}}, {"type": "Feature", "geometry": {"type": "Point", "coordinates": [-114.60592, 44.18629]}, "properties": {"source": "mrds", "name": "Lucky Strike Prospect", "type": "Unknown", "weight": 1.0}}, {"type": "Feature", "geometry": {"type": "Point", "coordinates": [-115.31096, 44.94488]}, "properties": {"source": "mrds", "name": "Kennedy Prospects", "type": "Unknown", "weight": 0.5}}, {"type": "Feature", "geometry": {"type": "Point", "coordinates": [-115.30929, 44.9471]}, "properties": {"source": "mrds", "name": "Stibnite Prospect", "type": "Unknown", "weight": 0.5}}, {"type": "Feature", "geometry": {"type": "Point", "coordinates": [-115.45235, 44.9471]}, "properties": {"source": "mrds", "name": "Antimony Ridge Mine", "type": "Vein", "weight": 1.0}}, {"type": "Feature", "geometry": {"type": "Point", "coordinates": [-115.33568, 44.9271]}, "properties": {"source": "mrds", "name": "Yellow Pine Mine", "type": "Vein", "weight": 0.5}}, {"type": "Feature", "geometry": {"type": "Point", "coordinates": [-115.33766, 44.92378]}, "properties": {"source": "mrds", "name": "Monday Prospect", "type": "Unknown", "weight": 0.5}}, {"type": "Feature", "geometry": {"type": "Point", "coordinates": [-115.34036, 44.90928]}, "properties": {"source": "mrds", "name": "North Tunnel Prospect", "type": "Unknown", "weight": 0.5}}, {"type": "Feature", "geometry": {"type": "Point", "coordinates": [-115.31536, 44.90928]}, "properties": {"source": "mrds", "name": "Garnet Creek Prospect", "type": "Unknown", "weight": 0.5}}, {"type": "Feature", "geometry": {"type": "Point", "coordinates": [-115.29406, 44.91268]}, "properties": {"source": "mrds", "name": "Hennessey Prospect", "type": "Vein", "weight": 1.0}}, {"type": "Feature", "geometry": {"type": "Point", "coordinates": [-115.30656, 44.90488]}, "properties": {"source": "mrds", "name": "Doris K. Prospect", "type": "Unknown", "weight": 0.5}}, {"type": "Feature", "geometry": {"type": "Point", "coordinates": [-115.28286, 44.90658]}, "properties": {"source": "mrds", "name": "White Metal Prospect", "type": "Replacement Vein", "weight": 0.5}}, {"type": "Feature", "geometry": {"type": "Point", "coordinates": [-114.52037, 44.83377]}, "properties": {"source": "mrds", "name": "Meyers Cove Antimony", "type": "Unknown", "weight": 0.5}}, {"type": "Feature", "geometry": {"type": "Point", "coordinates": [-115.09314, 44.53298]}, "properties": {"source": "mrds", "name": "Post's Property Mine", "type": "Vein", "weight": 1.0}}, {"type": "Feature", "geometry": {"type": "Point", "coordinates": [-114.70653, 44.45019]}, "properties": {"source": "mrds", "name": "McFadden Mine", "type": "Vein", "weight": 1.0}}, {"type": "Feature", "geometry": {"type": "Point", "coordinates": [-114.68732, 44.38211]}, "properties": {"source": "mrds", "name": "General Custer Mine", "type": "Unknown", "weight": 1.0}}, {"type": "Feature", "geometry": {"type": "Point", "coordinates": [-114.67173, 44.37709]}, "properties": {"source": "mrds", "name": "McClure Prospect", "type": "Vein", "weight": 1.0}}, {"type": "Feature", "geometry": {"type": "Point", "coordinates": [-114.67983, 44.37299]}, "properties": {"source": "mrds", "name": "Lucky Boy Mine", "type": "Unknown", "weight": 1.0}}, {"type": "Feature", "geometry": {"type": "Point", "coordinates": [-114.67373, 44.36379]}, "properties": {"source": "mrds", "name": "Wire Silver Prospects", "type": "Vein", "weight": 1.0}}, {"type": "Feature", "geometry": {"type": "Point", "coordinates": [-114.67482, 44.07519]}, "properties": {"source": "mrds", "name": "Strawberry Basin Claim", "type": "Unknown", "weight": 1.0}}, {"type": "Feature", "geometry": {"type": "Point", "coordinates": [-114.57732, 44.12349]}, "properties": {"source": "mrds", "name": "Del Yante Property", "type": "Vein", "weight": 0.5}}, {"type": "Feature", "geometry": {"type": "Point", "coordinates": [-115.80816, 44.06178]}, "properties": {"source": "mrds", "name": "K. C. Mine", "type": "Vein", "weight": 1.0}}, {"type": "Feature", "geometry": {"type": "Point", "coordinates": [-114.59672, 44.17929]}, "properties": {"source": "mrds", "name": "Copper Group Prospect", "type": "Unknown", "weight": 1.0}}, {"type": "Feature", "geometry": {"type": "Point", "coordinates": [-114.59622, 44.18519]}, "properties": {"source": "mrds", "name": "Bonita Group", "type": "Vein", "weight": 0.5}}, {"type": "Feature", "geometry": {"type": "Point", "coordinates": [-114.94374, 44.24878]}, "properties": {"source": "mrds", "name": "Nip and Tuck Prospect", "type": "Unknown", "weight": 1.0}}, {"type": "Feature", "geometry": {"type": "Point", "coordinates": [-115.32406, 45.13738]}, "properties": {"source": "mrds", "name": "Routson Prospect", "type": "Vein", "weight": 0.5}}, {"type": "Feature", "geometry": {"type": "Point", "coordinates": [-115.39036, 45.12128]}, "properties": {"source": "mrds", "name": "Logan Copper Hill Prospect", "type": "Unknown", "weight": 0.5}}, {"type": "Feature", "geometry": {"type": "Point", "coordinates": [-115.40096, 45.13682]}, "properties": {"source": "mrds", "name": "Antimony Rainbow Group Mine", "type": "Unknown", "weight": 3.0}}, {"type": "Feature", "geometry": {"type": "Point", "coordinates": [-115.47318, 45.80457]}, "properties": {"source": "mrds", "name": "Revenue Prospect", "type": "Unknown", "weight": 0.5}}, {"type": "Feature", "geometry": {"type": "Point", "coordinates": [-115.85488, 45.40677]}, "properties": {"source": "mrds", "name": "Harris-Holte Mine", "type": "Vein", "weight": 1.0}}, {"type": "Feature", "geometry": {"type": "Point", "coordinates": [-115.84788, 45.40047]}, "properties": {"source": "mrds", "name": "Hinkson - Bishop Mine", "type": "Vein", "weight": 1.0}}, {"type": "Feature", "geometry": {"type": "Point", "coordinates": [-115.51938, 45.68677]}, "properties": {"source": "mrds", "name": "Diamond Hitch Prospect", "type": "Vein", "weight": 1.0}}, {"type": "Feature", "geometry": {"type": "Point", "coordinates": [-115.26316, 45.19548]}, "properties": {"source": "mrds", "name": "Mulligan Group Prospect", "type": "Vein", "weight": 0.5}}, {"type": "Feature", "geometry": {"type": "Point", "coordinates": [-113.61528, 43.5307]}, "properties": {"source": "mrds", "name": "Antimony Prospect", "type": "Unknown", "weight": 1.0}}, {"type": "Feature", "geometry": {"type": "Point", "coordinates": [-113.57308, 43.5966]}, "properties": {"source": "mrds", "name": "Hornsilver Mine", "type": "Vein", "weight": 1.0}}, {"type": "Feature", "geometry": {"type": "Point", "coordinates": [-116.35492, 46.54676]}, "properties": {"source": "mrds", "name": "Teakean Asbestos Prospect", "type": "Unknown", "weight": 0.5}}, {"type": "Feature", "geometry": {"type": "Point", "coordinates": [-117.74824, 44.30264]}, "properties": {"source": "mrds", "name": "Coyote Mine", "type": "Vein", "weight": 1.0}}, {"type": "Feature", "geometry": {"type": "Point", "coordinates": [-118.21778, 48.23318]}, "properties": {"source": "mrds", "name": "Longstreet-Robert E Lee", "type": "Unknown", "weight": 0.5}}, {"type": "Feature", "geometry": {"type": "Point", "coordinates": [-116.06881, 47.50126]}, "properties": {"source": "mrds", "name": "Sunshine Consolidated Mine", "type": "Vein", "weight": 1.0}}, {"type": "Feature", "geometry": {"type": "Point", "coordinates": [-116.04933, 47.50127]}, "properties": {"source": "mrds", "name": "Silver Dollar Mine", "type": "Vein", "weight": 3.0}}, {"type": "Feature", "geometry": {"type": "Point", "coordinates": [-116.42299, 47.91764]}, "properties": {"source": "mrds", "name": "Conjecture Mine", "type": "Unknown", "weight": 1.0}}, {"type": "Feature", "geometry": {"type": "Point", "coordinates": [-116.43633, 47.90097]}, "properties": {"source": "mrds", "name": "Weber Mine", "type": "Unknown", "weight": 1.0}}, {"type": "Feature", "geometry": {"type": "Point", "coordinates": [-116.43995, 47.94906]}, "properties": {"source": "mrds", "name": "Hidden Treasure Mine", "type": "Unknown", "weight": 1.0}}, {"type": "Feature", "geometry": {"type": "Point", "coordinates": [-116.21909, 47.47015]}, "properties": {"source": "mrds", "name": "Big It Mine", "type": "Vein", "weight": 1.0}}, {"type": "Feature", "geometry": {"type": "Point", "coordinates": [-116.17163, 47.48297]}, "properties": {"source": "mrds", "name": "Nevada Stewart Prospect", "type": "Unknown", "weight": 1.0}}, {"type": "Feature", "geometry": {"type": "Point", "coordinates": [-116.24854, 47.53407]}, "properties": {"source": "mrds", "name": "Fourth of July Sourdough Mine", "type": "Unknown", "weight": 3.0}}, {"type": "Feature", "geometry": {"type": "Point", "coordinates": [-116.06853, 47.51017]}, "properties": {"source": "mrds", "name": "Silver Syndicate Mine", "type": "Vein", "weight": 3.0}}, {"type": "Feature", "geometry": {"type": "Point", "coordinates": [-116.05523, 47.50457]}, "properties": {"source": "mrds", "name": "Mineral Mountain Mine", "type": "Unknown", "weight": 3.0}}, {"type": "Feature", "geometry": {"type": "Point", "coordinates": [-116.23293, 47.49177]}, "properties": {"source": "mrds", "name": "Lookout Mountain Mine", "type": "Vein", "weight": 3.0}}, {"type": "Feature", "geometry": {"type": "Point", "coordinates": [-115.74462, 47.61567]}, "properties": {"source": "mrds", "name": "Silver Crystal Mine", "type": "Unknown", "weight": 3.0}}, {"type": "Feature", "geometry": {"type": "Point", "coordinates": [-115.96382, 47.47957]}, "properties": {"source": "mrds", "name": "Galena Mine", "type": "HYDROTHERMAL VEIN AND REPLACEMENT", "weight": 3.0}}, {"type": "Feature", "geometry": {"type": "Point", "coordinates": [-115.97463, 47.60987]}, "properties": {"source": "mrds", "name": "Royal Apex Mine", "type": "Vein", "weight": 3.0}}, {"type": "Feature", "geometry": {"type": "Point", "coordinates": [-115.81042, 47.52737]}, "properties": {"source": "mrds", "name": "Stanley Mine", "type": "Vein", "weight": 3.0}}, {"type": "Feature", "geometry": {"type": "Point", "coordinates": [-115.80772, 47.52767]}, "properties": {"source": "mrds", "name": "Benton Mine", "type": "Vein", "weight": 1.0}}, {"type": "Feature", "geometry": {"type": "Point", "coordinates": [-115.78292, 47.48237]}, "properties": {"source": "mrds", "name": "Gold Hunter Mine", "type": "HYDROTHERMAL VEIN AND REPLACEMENT", "weight": 3.0}}, {"type": "Feature", "geometry": {"type": "Point", "coordinates": [-116.75377, 42.92708]}, "properties": {"source": "mrds", "name": "East Creek Mine", "type": "Vein", "weight": 0.5}}, {"type": "Feature", "geometry": {"type": "Point", "coordinates": [-120.32644, 47.39539]}, "properties": {"source": "mrds", "name": "Cannon Mine", "type": "150: Epithermal vein, Comstock", "weight": 3.0}}, {"type": "Feature", "geometry": {"type": "Point", "coordinates": [-116.17545, 48.16657]}, "properties": {"source": "mrds", "name": "Hope Mine", "type": "Unknown", "weight": 1.0}}, {"type": "Feature", "geometry": {"type": "Point", "coordinates": [-115.78707, 43.88932]}, "properties": {"source": "mrds", "name": "Gambrinus Mine", "type": "Unknown", "weight": 1.0}}, {"type": "Feature", "geometry": {"type": "Point", "coordinates": [-116.22207, 43.90848]}, "properties": {"source": "mrds", "name": "Osborne Mine", "type": "Unknown", "weight": 1.0}}, {"type": "Feature", "geometry": {"type": "Point", "coordinates": [-116.21487, 43.90458]}, "properties": {"source": "mrds", "name": "Mammoth Prospect", "type": "Unknown", "weight": 0.5}}, {"type": "Feature", "geometry": {"type": "Point", "coordinates": [-116.23157, 43.89848]}, "properties": {"source": "mrds", "name": "Atlanta Prospect", "type": "Unknown", "weight": 3.0}}, {"type": "Feature", "geometry": {"type": "Point", "coordinates": [-116.23487, 43.89598]}, "properties": {"source": "mrds", "name": "Claggett Prospect", "type": "Unknown", "weight": 0.5}}, {"type": "Feature", "geometry": {"type": "Point", "coordinates": [-114.60702, 44.13739]}, "properties": {"source": "mrds", "name": "G. B. Williams Antimony Mine", "type": "Unknown", "weight": 1.0}}, {"type": "Feature", "geometry": {"type": "Point", "coordinates": [-114.57062, 44.18799]}, "properties": {"source": "mrds", "name": "Carbonate Mine", "type": "Unknown", "weight": 1.0}}, {"type": "Feature", "geometry": {"type": "Point", "coordinates": [-114.79903, 44.29019]}, "properties": {"source": "mrds", "name": "Hardee Mine", "type": "Unknown", "weight": 1.0}}, {"type": "Feature", "geometry": {"type": "Point", "coordinates": [-115.41316, 45.06208]}, "properties": {"source": "mrds", "name": "B and B No. 4 Claim", "type": "Unknown", "weight": 0.5}}, {"type": "Feature", "geometry": {"type": "Point", "coordinates": [-115.95656, 45.92154]}, "properties": {"source": "mrds", "name": "Blacktail Asbestos Prospect", "type": "Unknown", "weight": 1.0}}, {"type": "Feature", "geometry": {"type": "Point", "coordinates": [-114.50093, 44.83321]}, "properties": {"source": "mrds", "name": "Meyers Cove", "type": "Unknown", "weight": 0.5}}, {"type": "Feature", "geometry": {"type": "Point", "coordinates": [-117.41777, 48.83319]}, "properties": {"source": "mrds", "name": "Blue Jim", "type": "Unknown", "weight": 0.5}}, {"type": "Feature", "geometry": {"type": "Point", "coordinates": [-121.48093, 48.08453]}, "properties": {"source": "mrds", "name": "Eureka", "type": "85: Polymetallic veins", "weight": 0.5}}, {"type": "Feature", "geometry": {"type": "Point", "coordinates": [-117.58443, 48.41652]}, "properties": {"source": "mrds", "name": "Copper Queen", "type": "Unknown", "weight": 0.5}}, {"type": "Feature", "geometry": {"type": "Point", "coordinates": [-117.4625, 48.97361]}, "properties": {"source": "mrds", "name": "Keough", "type": "Unknown", "weight": 0.5}}, {"type": "Feature", "geometry": {"type": "Point", "coordinates": [-118.16778, 48.16652]}, "properties": {"source": "mrds", "name": "Little Frank", "type": "Unknown", "weight": 0.5}}, {"type": "Feature", "geometry": {"type": "Point", "coordinates": [-119.21338, 48.9404]}, "properties": {"source": "mrds", "name": "Carlquist Property", "type": "Vein", "weight": 0.5}}, {"type": "Feature", "geometry": {"type": "Point", "coordinates": [-121.43812, 46.72093]}, "properties": {"source": "mrds", "name": "Jug Lake Prospect", "type": "180: Simple Sb (veins, pods, etc)", "weight": 0.5}}, {"type": "Feature", "geometry": {"type": "Point", "coordinates": [-118.20083, 48.23791]}, "properties": {"source": "mrds", "name": "Longstreet", "type": "Unknown", "weight": 0.5}}, {"type": "Feature", "geometry": {"type": "Point", "coordinates": [-120.14673, 48.15566]}, "properties": {"source": "mrds", "name": "Antimony Bell", "type": "Unknown", "weight": 0.5}}, {"type": "Feature", "geometry": {"type": "Point", "coordinates": [-119.02476, 48.85345]}, "properties": {"source": "mrds", "name": "Whitestone", "type": "Unknown", "weight": 0.5}}, {"type": "Feature", "geometry": {"type": "Point", "coordinates": [-118.02499, 48.11624]}, "properties": {"source": "mrds", "name": "Cleveland", "type": "Unknown", "weight": 0.5}}, {"type": "Feature", "geometry": {"type": "Point", "coordinates": [-117.96916, 48.14846]}, "properties": {"source": "mrds", "name": "Wells Fargo", "type": "Unknown", "weight": 0.5}}, {"type": "Feature", "geometry": {"type": "Point", "coordinates": [-120.80899, 48.66899]}, "properties": {"source": "mrds", "name": "Gold Hill", "type": "Unknown", "weight": 0.5}}, {"type": "Feature", "geometry": {"type": "Point", "coordinates": [-114.75873, 43.94269]}, "properties": {"source": "mrds", "name": "Stibnite Prospect", "type": "Vein", "weight": 1.0}}, {"type": "Feature", "geometry": {"type": "Point", "coordinates": [-115.35874, 43.86798]}, "properties": {"source": "mrds", "name": "Hope Claims Prospect", "type": "Vein", "weight": 0.5}}, {"type": "Feature", "geometry": {"type": "Point", "coordinates": [-115.47098, 45.80293]}, "properties": {"source": "mrds", "name": "Red River Stibnite Deposit", "type": "Vein", "weight": 1.0}}, {"type": "Feature", "geometry": {"type": "Point", "coordinates": [-115.72208, 45.24267]}, "properties": {"source": "mrds", "name": "Dewey Vein Prospect", "type": "Vein", "weight": 1.0}}, {"type": "Feature", "geometry": {"type": "Point", "coordinates": [-115.26566, 45.19128]}, "properties": {"source": "mrds", "name": "Sulfide Prospect", "type": "Vein", "weight": 0.5}}, {"type": "Feature", "geometry": {"type": "Point", "coordinates": [-115.30537, 45.52798]}, "properties": {"source": "mrds", "name": "Hermit Hanks Prospect", "type": "Unknown", "weight": 1.0}}, {"type": "Feature", "geometry": {"type": "Point", "coordinates": [-116.06413, 47.52957]}, "properties": {"source": "mrds", "name": "Enterprise Prospect", "type": "Vein", "weight": 0.5}}, {"type": "Feature", "geometry": {"type": "Point", "coordinates": [-121.48648, 47.63953]}, "properties": {"source": "mrds", "name": "Bear Basin", "type": "85: Polymetallic veins", "weight": 0.5}}, {"type": "Feature", "geometry": {"type": "Point", "coordinates": [-115.47266, 44.91768]}, "properties": {"source": "mrds", "name": "Pioneer Group Prospect", "type": "Vein", "weight": 0.5}}, {"type": "Feature", "geometry": {"type": "Point", "coordinates": [-118.91189, 44.37179]}, "properties": {"source": "mrds", "name": "Spare Time Claims", "type": "Unknown", "weight": 0.5}}, {"type": "Feature", "geometry": {"type": "Point", "coordinates": [-122.67171, 43.57038]}, "properties": {"source": "mrds", "name": "Old Henery", "type": "Unknown", "weight": 0.5}}, {"type": "Feature", "geometry": {"type": "Point", "coordinates": [-121.35843, 47.98926]}, "properties": {"source": "mrds", "name": "Whistler Prospect", "type": "85: Polymetallic veins", "weight": 0.5}}, {"type": "Feature", "geometry": {"type": "Point", "coordinates": [-118.20639, 48.23568]}, "properties": {"source": "mrds", "name": "Perry", "type": "Vein", "weight": 0.5}}, {"type": "Feature", "geometry": {"type": "Point", "coordinates": [-118.16611, 48.00207]}, "properties": {"source": "mrds", "name": "Boundary Butte", "type": "Unknown", "weight": 0.5}}, {"type": "Feature", "geometry": {"type": "Point", "coordinates": [-121.43064, 47.7062]}, "properties": {"source": "mrds", "name": "Grand Central", "type": "180: Simple Sb (veins, pods, etc)", "weight": 0.5}}, {"type": "Feature", "geometry": {"type": "Point", "coordinates": [-116.71957, 43.08428]}, "properties": {"source": "mrds", "name": "Grey Eagle Prospect", "type": "Unknown", "weight": 0.5}}, {"type": "Feature", "geometry": {"type": "Point", "coordinates": [-114.82703, 43.83409]}, "properties": {"source": "mrds", "name": "Stibnite Prospect", "type": "Vein", "weight": 0.5}}, {"type": "Feature", "geometry": {"type": "Point", "coordinates": [-114.68233, 44.09069]}, "properties": {"source": "mrds", "name": "Patty Flynn Prospect", "type": "Unknown", "weight": 1.0}}, {"type": "Feature", "geometry": {"type": "Point", "coordinates": [-115.33406, 44.93518]}, "properties": {"source": "mrds", "name": "Nethken Prospects", "type": "Unknown", "weight": 0.5}}, {"type": "Feature", "geometry": {"type": "Point", "coordinates": [-115.49566, 44.91268]}, "properties": {"source": "mrds", "name": "Silver Cliff Lode", "type": "Replacement", "weight": 0.5}}, {"type": "Feature", "geometry": {"type": "Point", "coordinates": [-115.28676, 44.90158]}, "properties": {"source": "mrds", "name": "Mountain Chief Prospect", "type": "Vein", "weight": 0.5}}, {"type": "Feature", "geometry": {"type": "Point", "coordinates": [-114.67454, 44.38045]}, "properties": {"source": "mrds", "name": "Idaho Prospect", "type": "Vein", "weight": 1.0}}, {"type": "Feature", "geometry": {"type": "Point", "coordinates": [-114.66532, 44.00129]}, "properties": {"source": "mrds", "name": "Washington Vein Prospects", "type": "Unknown", "weight": 0.5}}, {"type": "Feature", "geometry": {"type": "Point", "coordinates": [-114.51263, 44.83178]}, "properties": {"source": "mrds", "name": "Antimony Lode", "type": "Unknown", "weight": 0.5}}, {"type": "Feature", "geometry": {"type": "Point", "coordinates": [-115.35286, 45.13378]}, "properties": {"source": "mrds", "name": "Green Spider Prospect", "type": "Vein", "weight": 0.5}}, {"type": "Feature", "geometry": {"type": "Point", "coordinates": [-115.34486, 45.21568]}, "properties": {"source": "mrds", "name": "Lost Packer Prospect", "type": "Vein", "weight": 0.5}}, {"type": "Feature", "geometry": {"type": "Point", "coordinates": [-115.03453, 43.8216]}, "properties": {"source": "mrds", "name": "Basin Claims", "type": "Unknown", "weight": 1.0}}, {"type": "Feature", "geometry": {"type": "Point", "coordinates": [-115.11874, 44.20098]}, "properties": {"source": "mrds", "name": "Stanley Lake Creek Outcrop", "type": "Vein", "weight": 0.5}}, {"type": "Feature", "geometry": {"type": "Point", "coordinates": [-116.27043, 47.48707]}, "properties": {"source": "mrds", "name": "Bluebird Prospect", "type": "Unknown", "weight": 0.5}}, {"type": "Feature", "geometry": {"type": "Point", "coordinates": [-118.5828, 48.60263]}, "properties": {"source": "mrds", "name": "California", "type": "Vein", "weight": 1.0}}, {"type": "Feature", "geometry": {"type": "Point", "coordinates": [-118.19, 48.23874]}, "properties": {"source": "mrds", "name": "Silver Leaf", "type": "Vein", "weight": 1.0}}, {"type": "Feature", "geometry": {"type": "Point", "coordinates": [-118.55281, 48.96652]}, "properties": {"source": "mrds", "name": "Comstock", "type": "Unknown", "weight": 1.0}}, {"type": "Feature", "geometry": {"type": "Point", "coordinates": [-118.00834, 48.63818]}, "properties": {"source": "mrds", "name": "Vanasse", "type": "Vein", "weight": 1.0}}, {"type": "Feature", "geometry": {"type": "Point", "coordinates": [-118.09362, 48.94763]}, "properties": {"source": "mrds", "name": "Pomeroy", "type": "Vein", "weight": 1.0}}, {"type": "Feature", "geometry": {"type": "Point", "coordinates": [-116.22353, 47.52207]}, "properties": {"source": "mrds", "name": "Big Eight Prospect", "type": "Vein", "weight": 1.0}}, {"type": "Feature", "geometry": {"type": "Point", "coordinates": [-121.4012, 47.69843]}, "properties": {"source": "mrds", "name": "Great Republic", "type": "85: Polymetallic veins", "weight": 1.0}}, {"type": "Feature", "geometry": {"type": "Point", "coordinates": [-118.66078, 44.71874]}, "properties": {"source": "mrds", "name": "Pioneer Mine", "type": "Vein", "weight": 1.0}}, {"type": "Feature", "geometry": {"type": "Point", "coordinates": [-118.19972, 48.23679]}, "properties": {"source": "mrds", "name": "Longstreet", "type": "Unknown", "weight": 1.0}}, {"type": "Feature", "geometry": {"type": "Point", "coordinates": [-123.84283, 42.29621]}, "properties": {"source": "mrds", "name": "Young Claim", "type": "Unknown", "weight": 1.0}}, {"type": "Feature", "geometry": {"type": "Point", "coordinates": [-120.37277, 44.41705]}, "properties": {"source": "mrds", "name": "Ochoco", "type": "Unknown", "weight": 1.0}}, {"type": "Feature", "geometry": {"type": "Point", "coordinates": [-116.20105, 48.1632]}, "properties": {"source": "mrds", "name": "Whitedelf Mine", "type": "Unknown", "weight": 1.0}}, {"type": "Feature", "geometry": {"type": "Point", "coordinates": [-120.50808, 44.71457]}, "properties": {"source": "mrds", "name": "Horse Heaven Mine", "type": "Unknown", "weight": 1.0}}, {"type": "Feature", "geometry": {"type": "Point", "coordinates": [-115.88376, 43.91068]}, "properties": {"source": "mrds", "name": "Twin Sister Mine", "type": "Unknown", "weight": 1.0}}, {"type": "Feature", "geometry": {"type": "Point", "coordinates": [-116.70957, 43.09318]}, "properties": {"source": "mrds", "name": "Cosmopolitan Mine", "type": "Vein", "weight": 1.0}}, {"type": "Feature", "geometry": {"type": "Point", "coordinates": [-116.73377, 43.06908]}, "properties": {"source": "mrds", "name": "Nugent Prospect", "type": "Unknown", "weight": 1.0}}, {"type": "Feature", "geometry": {"type": "Point", "coordinates": [-116.16076, 48.14709]}, "properties": {"source": "mrds", "name": "Lawrence Mine", "type": "Unknown", "weight": 1.0}}, {"type": "Feature", "geometry": {"type": "Point", "coordinates": [-116.79411, 45.04206]}, "properties": {"source": "mrds", "name": "Azurite Mine", "type": "Vein", "weight": 1.0}}, {"type": "Feature", "geometry": {"type": "Point", "coordinates": [-115.8388, 46.21597]}, "properties": {"source": "mrds", "name": "Kamiah Asbestos Mine", "type": "Unknown", "weight": 1.0}}, {"type": "Feature", "geometry": {"type": "Point", "coordinates": [-114.64092, 43.99819]}, "properties": {"source": "mrds", "name": "Idahoan and Old Bible Back Mines", "type": "Unknown", "weight": 1.0}}, {"type": "Feature", "geometry": {"type": "Point", "coordinates": [-114.26811, 43.65349]}, "properties": {"source": "mrds", "name": "North Star Mine", "type": "Vein", "weight": 1.0}}, {"type": "Feature", "geometry": {"type": "Point", "coordinates": [-114.87733, 43.85269]}, "properties": {"source": "mrds", "name": "Silver King Mine", "type": "Vein", "weight": 1.0}}, {"type": "Feature", "geometry": {"type": "Point", "coordinates": [-115.33516, 44.89928]}, "properties": {"source": "mrds", "name": "Meadow Creek Mine", "type": "Unknown", "weight": 1.0}}, {"type": "Feature", "geometry": {"type": "Point", "coordinates": [-114.92704, 44.27708]}, "properties": {"source": "mrds", "name": "Silver Dollar Mine", "type": "Unknown", "weight": 1.0}}, {"type": "Feature", "geometry": {"type": "Point", "coordinates": [-114.87623, 44.31628]}, "properties": {"source": "mrds", "name": "Lightning Upper Pit Mine", "type": "Unknown", "weight": 1.0}}, {"type": "Feature", "geometry": {"type": "Point", "coordinates": [-115.40176, 45.12958]}, "properties": {"source": "mrds", "name": "Golden West Mine", "type": "Unknown", "weight": 1.0}}, {"type": "Feature", "geometry": {"type": "Point", "coordinates": [-115.41596, 45.0596]}, "properties": {"source": "mrds", "name": "Wilson Group", "type": "Vein", "weight": 1.0}}, {"type": "Feature", "geometry": {"type": "Point", "coordinates": [-113.30722, 44.70639]}, "properties": {"source": "mrds", "name": "Sunset Mine", "type": "Unknown", "weight": 1.0}}, {"type": "Feature", "geometry": {"type": "Point", "coordinates": [-120.52274, 42.33235]}, "properties": {"source": "mrds", "name": "White King Mine", "type": "Unknown", "weight": 1.0}}, {"type": "Feature", "geometry": {"type": "Point", "coordinates": [-116.13913, 47.53377]}, "properties": {"source": "mrds", "name": "Bunker Hill Mine", "type": "HYDROTHERMAL VEIN AND REPLACEMENT", "weight": 1.0}}, {"type": "Feature", "geometry": {"type": "Point", "coordinates": [-116.27103, 47.49177]}, "properties": {"source": "mrds", "name": "Great Dunkard Mine", "type": "Unknown", "weight": 1.0}}, {"type": "Feature", "geometry": {"type": "Point", "coordinates": [-116.18963, 47.47017]}, "properties": {"source": "mrds", "name": "Star Antimony Mine", "type": "Unknown", "weight": 1.0}}, {"type": "Feature", "geometry": {"type": "Point", "coordinates": [-118.21688, 44.82485]}, "properties": {"source": "mrds", "name": "North Pole-Columbia Lode", "type": "Unknown", "weight": 3.0}}, {"type": "Feature", "geometry": {"type": "Point", "coordinates": [-116.48827, 48.13375]}, "properties": {"source": "mrds", "name": "Bluebird Mine", "type": "Vein", "weight": 3.0}}, {"type": "Feature", "geometry": {"type": "Point", "coordinates": [-116.07186, 47.50765]}, "properties": {"source": "mrds", "name": "Big Creek Apex Mine", "type": "Vein", "weight": 3.0}}, {"type": "Feature", "geometry": {"type": "Point", "coordinates": [-115.98963, 47.49017]}, "properties": {"source": "mrds", "name": "Coeur Mine", "type": "HYDROTHERMAL VEIN AND REPLACEMENT", "weight": 1.0}}, {"type": "Feature", "geometry": {"type": "Point", "coordinates": [-118.20111, 48.23318]}, "properties": {"source": "mrds", "name": "Silver Leaf and Orion", "type": "Unknown", "weight": 3.0}}, {"type": "Feature", "geometry": {"type": "Point", "coordinates": [-118.21778, 48.23318]}, "properties": {"source": "mrds", "name": "Longstreet - Robert E. Lee", "type": "Unknown", "weight": 3.0}}, {"type": "Feature", "geometry": {"type": "Point", "coordinates": [-118.25111, 48.24985]}, "properties": {"source": "mrds", "name": "Montana", "type": "Unknown", "weight": 3.0}}, {"type": "Feature", "geometry": {"type": "Point", "coordinates": [-118.25111, 48.24985]}, "properties": {"source": "mrds", "name": "Silver Leaf Mine", "type": "Unknown", "weight": 3.0}}, {"type": "Feature", "geometry": {"type": "Point", "coordinates": [-119.50117, 48.83317]}, "properties": {"source": "mrds", "name": "Bellevue", "type": "Unknown", "weight": 3.0}}, {"type": "Feature", "geometry": {"type": "Point", "coordinates": [-119.66784, 48.49983]}, "properties": {"source": "mrds", "name": "Fourth of July", "type": "Unknown", "weight": 3.0}}, {"type": "Feature", "geometry": {"type": "Point", "coordinates": [-119.75117, 48.49983]}, "properties": {"source": "mrds", "name": "Leuena Laeuna, Launa", "type": "Unknown", "weight": 3.0}}, {"type": "Feature", "geometry": {"type": "Point", "coordinates": [-119.75117, 48.58316]}, "properties": {"source": "mrds", "name": "Lone Star Star", "type": "Vein", "weight": 3.0}}, {"type": "Feature", "geometry": {"type": "Point", "coordinates": [-119.75117, 48.58316]}, "properties": {"source": "mrds", "name": "Mineral Hill", "type": "Unknown", "weight": 3.0}}, {"type": "Feature", "geometry": {"type": "Point", "coordinates": [-119.66784, 48.6665]}, "properties": {"source": "mrds", "name": "Nevada", "type": "Vein", "weight": 3.0}}, {"type": "Feature", "geometry": {"type": "Point", "coordinates": [-119.66784, 48.49983]}, "properties": {"source": "mrds", "name": "Plant - Callahan", "type": "Unknown", "weight": 3.0}}, {"type": "Feature", "geometry": {"type": "Point", "coordinates": [-119.66784, 48.83316]}, "properties": {"source": "mrds", "name": "Ruby", "type": "Unknown", "weight": 3.0}}, {"type": "Feature", "geometry": {"type": "Point", "coordinates": [-118.87694, 48.37417]}, "properties": {"source": "mrds", "name": "Summit", "type": "Unknown", "weight": 3.0}}, {"type": "Feature", "geometry": {"type": "Point", "coordinates": [-118.11779, 48.54846]}, "properties": {"source": "mrds", "name": "Ark Silver Queen", "type": "Unknown", "weight": 3.0}}, {"type": "Feature", "geometry": {"type": "Point", "coordinates": [-117.70109, 48.11652]}, "properties": {"source": "mrds", "name": "Cleveland Mine", "type": "Unknown", "weight": 3.0}}, {"type": "Feature", "geometry": {"type": "Point", "coordinates": [-117.56333, 48.94833]}, "properties": {"source": "mrds", "name": "Copper King", "type": "Unknown", "weight": 3.0}}, {"type": "Feature", "geometry": {"type": "Point", "coordinates": [-118.08444, 48.49985]}, "properties": {"source": "mrds", "name": "Eagle Newport", "type": "Unknown", "weight": 3.0}}, {"type": "Feature", "geometry": {"type": "Point", "coordinates": [-117.83443, 48.24985]}, "properties": {"source": "mrds", "name": "Edna King", "type": "Unknown", "weight": 3.0}}, {"type": "Feature", "geometry": {"type": "Point", "coordinates": [-118.00111, 48.66652]}, "properties": {"source": "mrds", "name": "Gold Bar", "type": "Unknown", "weight": 3.0}}, {"type": "Feature", "geometry": {"type": "Point", "coordinates": [-117.58442, 48.24985]}, "properties": {"source": "mrds", "name": "Jay Gould", "type": "Unknown", "weight": 3.0}}, {"type": "Feature", "geometry": {"type": "Point", "coordinates": [-117.58442, 48.16652]}, "properties": {"source": "mrds", "name": "Loon Lake Copper", "type": "Unknown", "weight": 3.0}}, {"type": "Feature", "geometry": {"type": "Point", "coordinates": [-117.58444, 48.83319]}, "properties": {"source": "mrds", "name": "Melrose", "type": "Unknown", "weight": 3.0}}, {"type": "Feature", "geometry": {"type": "Point", "coordinates": [-117.56777, 48.64569]}, "properties": {"source": "mrds", "name": "Middleport", "type": "Unknown", "weight": 3.0}}, {"type": "Feature", "geometry": {"type": "Point", "coordinates": [-117.45389, 48.99028]}, "properties": {"source": "mrds", "name": "Myeerah", "type": "Vein", "weight": 3.0}}, {"type": "Feature", "geometry": {"type": "Point", "coordinates": [-117.58443, 48.41652]}, "properties": {"source": "mrds", "name": "United Silver Copper", "type": "Unknown", "weight": 3.0}}, {"type": "Feature", "geometry": {"type": "Point", "coordinates": [-120.89037, 48.15454]}, "properties": {"source": "mrds", "name": "Keefer Brothers", "type": "Unknown", "weight": 3.0}}, {"type": "Feature", "geometry": {"type": "Point", "coordinates": [-117.73435, 44.29986]}, "properties": {"source": "mrds", "name": "Coyote", "type": "Vein", "weight": 3.0}}, {"type": "Feature", "geometry": {"type": "Point", "coordinates": [-116.2427, 47.5332]}, "properties": {"source": "mrds", "name": "Coeur D'Alene Antimony", "type": "Unknown", "weight": 3.0}}, {"type": "Feature", "geometry": {"type": "Point", "coordinates": [-118.21522, 44.82013]}, "properties": {"source": "mrds", "name": "Golconda", "type": "Unknown", "weight": 3.0}}, {"type": "Feature", "geometry": {"type": "Point", "coordinates": [-117.72575, 44.81403]}, "properties": {"source": "mrds", "name": "Flagstaff", "type": "Unknown", "weight": 3.0}}, {"type": "Feature", "geometry": {"type": "Point", "coordinates": [-117.15545, 44.59708]}, "properties": {"source": "mrds", "name": "Mullin Prospect", "type": "Vein", "weight": 3.0}}, {"type": "Feature", "geometry": {"type": "Point", "coordinates": [-119.05884, 44.44346]}, "properties": {"source": "mrds", "name": "Mount Vernon Deposit", "type": "Unknown", "weight": 3.0}}, {"type": "Feature", "geometry": {"type": "Point", "coordinates": [-118.7805, 44.71207]}, "properties": {"source": "mrds", "name": "Golden Gate Group", "type": "Vein", "weight": 3.0}}, {"type": "Feature", "geometry": {"type": "Point", "coordinates": [-118.59049, 44.71207]}, "properties": {"source": "mrds", "name": "Quick Action", "type": "Vein", "weight": 3.0}}, {"type": "Feature", "geometry": {"type": "Point", "coordinates": [-122.64948, 43.55982]}, "properties": {"source": "mrds", "name": "El Capitan", "type": "Unknown", "weight": 3.0}}, {"type": "Feature", "geometry": {"type": "Point", "coordinates": [-122.61643, 43.58538]}, "properties": {"source": "mrds", "name": "Helena", "type": "Unknown", "weight": 3.0}}, {"type": "Feature", "geometry": {"type": "Point", "coordinates": [-123.11726, 42.74426]}, "properties": {"source": "mrds", "name": "Liberty Asbestos", "type": "Replacement", "weight": 3.0}}, {"type": "Feature", "geometry": {"type": "Point", "coordinates": [-123.04698, 42.61315]}, "properties": {"source": "mrds", "name": "Raspberry Creek", "type": "Unknown", "weight": 3.0}}, {"type": "Feature", "geometry": {"type": "Point", "coordinates": [-118.21772, 45.06652]}, "properties": {"source": "mrds", "name": "Stibnite Mine", "type": "Unknown", "weight": 3.0}}, {"type": "Feature", "geometry": {"type": "Point", "coordinates": [-120.1809, 48.20122]}, "properties": {"source": "mrds", "name": "Antimony Queen Mine", "type": "180: Simple Sb (veins, pods, etc)", "weight": 1.0}}, {"type": "Feature", "geometry": {"type": "Point", "coordinates": [-116.21487, 43.90458]}, "properties": {"source": "mrds", "name": "Mammoth Prospect", "type": "Unknown", "weight": 1.0}}, {"type": "Feature", "geometry": {"type": "Point", "coordinates": [-114.8175, 43.5208]}, "properties": {"source": "mrds", "name": "Perseverance Mine", "type": "Unknown", "weight": 1.0}}, {"type": "Feature", "geometry": {"type": "Point", "coordinates": [-115.52035, 44.02568]}, "properties": {"source": "mrds", "name": "Silver Key Prospect", "type": "Unknown", "weight": 1.0}}, {"type": "Feature", "geometry": {"type": "Point", "coordinates": [-115.84986, 43.90158]}, "properties": {"source": "mrds", "name": "Summit Mine", "type": "Unknown", "weight": 1.0}}, {"type": "Feature", "geometry": {"type": "Point", "coordinates": [-116.43995, 47.94906]}, "properties": {"source": "mrds", "name": "Hidden Treasure", "type": "Unknown", "weight": 1.0}}, {"type": "Feature", "geometry": {"type": "Point", "coordinates": [-116.25427, 43.89658]}, "properties": {"source": "mrds", "name": "Hall's Claim", "type": "Unknown", "weight": 1.0}}, {"type": "Feature", "geometry": {"type": "Point", "coordinates": [-114.247, 43.65709]}, "properties": {"source": "mrds", "name": "Duquette", "type": "Unknown", "weight": 1.0}}, {"type": "Feature", "geometry": {"type": "Point", "coordinates": [-114.72172, 43.80799]}, "properties": {"source": "mrds", "name": "Hill Side Prospect", "type": "Unknown", "weight": 0.5}}, {"type": "Feature", "geometry": {"type": "Point", "coordinates": [-115.39156, 45.09908]}, "properties": {"source": "mrds", "name": "Green", "type": "Unknown", "weight": 0.5}}, {"type": "Feature", "geometry": {"type": "Point", "coordinates": [-116.70957, 43.09318]}, "properties": {"source": "mrds", "name": "Cosmopolitan", "type": "Unknown", "weight": 1.0}}, {"type": "Feature", "geometry": {"type": "Point", "coordinates": [-116.19823, 47.48797]}, "properties": {"source": "mrds", "name": "Yankee Girl Mine", "type": "Unknown", "weight": 1.0}}, {"type": "Feature", "geometry": {"type": "Point", "coordinates": [-117.62243, 44.79766]}, "properties": {"source": "mrds", "name": "Sunset Claims", "type": "Unknown", "weight": 1.0}}, {"type": "Feature", "geometry": {"type": "Point", "coordinates": [-118.20545, 44.83065]}, "properties": {"source": "mrds", "name": "Columbia Mine", "type": "Unknown", "weight": 1.0}}, {"type": "Feature", "geometry": {"type": "Point", "coordinates": [-123.84286, 42.29622]}, "properties": {"source": "mrds", "name": "Young Claim", "type": "Unknown", "weight": 1.0}}, {"type": "Feature", "geometry": {"type": "Point", "coordinates": [-120.65942, 44.74623]}, "properties": {"source": "mrds", "name": "Axehandle Mine", "type": "Unknown", "weight": 3.0}}, {"type": "Feature", "geometry": {"type": "Point", "coordinates": [-122.77503, 42.06203]}, "properties": {"source": "mrds", "name": "Briner Property", "type": "Unknown", "weight": 1.0}}, {"type": "Feature", "geometry": {"type": "Point", "coordinates": [-118.77166, 44.71705]}, "properties": {"source": "mrds", "name": "Golden Gate Group", "type": "Unknown", "weight": 1.0}}, {"type": "Feature", "geometry": {"type": "Point", "coordinates": [-123.11725, 42.74422]}, "properties": {"source": "mrds", "name": "Liberty Asbestos", "type": "Unknown", "weight": 1.0}}, {"type": "Feature", "geometry": {"type": "Point", "coordinates": [-123.58536, 42.61012]}, "properties": {"source": "mrds", "name": "Almeda", "type": "Unknown", "weight": 1.0}}, {"type": "Feature", "geometry": {"type": "Point", "coordinates": [-122.92698, 44.49061]}, "properties": {"source": "mrds", "name": "Suing Farm", "type": "Unknown", "weight": 0.5}}, {"type": "Feature", "geometry": {"type": "Point", "coordinates": [-123.06143, 42.00733]}, "properties": {"source": "mrds", "name": "Bonnie Asbestos", "type": "Unknown", "weight": 1.0}}, {"type": "Feature", "geometry": {"type": "Point", "coordinates": [-124.00807, 42.59811]}, "properties": {"source": "mrds", "name": "Shyrite", "type": "Unknown", "weight": 0.5}}, {"type": "Feature", "geometry": {"type": "Point", "coordinates": [-122.78834, 42.79842]}, "properties": {"source": "mrds", "name": "T and M Prospect", "type": "Unknown", "weight": 1.0}}, {"type": "Feature", "geometry": {"type": "Point", "coordinates": [-120.3719, 44.41293]}, "properties": {"source": "mrds", "name": "Mayflower Mine", "type": "Unknown", "weight": 1.0}}, {"type": "Feature", "geometry": {"type": "Point", "coordinates": [-122.67175, 43.57042]}, "properties": {"source": "mrds", "name": "Old Henery", "type": "Unknown", "weight": 1.0}}, {"type": "Feature", "geometry": {"type": "Point", "coordinates": [-121.50541, 47.75261]}, "properties": {"source": "mrds", "name": "Salmon Creek", "type": "Unknown", "weight": 1.0}}, {"type": "Feature", "geometry": {"type": "Point", "coordinates": [-120.97558, 47.50762]}, "properties": {"source": "mrds", "name": "Ellen & Snook Prospect", "type": "Unknown", "weight": 1.0}}, {"type": "Feature", "geometry": {"type": "Point", "coordinates": [-121.4468, 47.62981]}, "properties": {"source": "mrds", "name": "Aces Up", "type": "Unknown", "weight": 1.0}}, {"type": "Feature", "geometry": {"type": "Point", "coordinates": [-121.4034, 47.69732]}, "properties": {"source": "mrds", "name": "Great Republic Mine", "type": "Unknown", "weight": 1.0}}, {"type": "Feature", "geometry": {"type": "Point", "coordinates": [-120.63898, 47.82452]}, "properties": {"source": "mrds", "name": "Deep Creek", "type": "Unknown", "weight": 0.5}}, {"type": "Feature", "geometry": {"type": "Point", "coordinates": [-121.4206, 47.71371]}, "properties": {"source": "mrds", "name": "Grand Central", "type": "Unknown", "weight": 1.0}}, {"type": "Feature", "geometry": {"type": "Point", "coordinates": [-121.33951, 47.99422]}, "properties": {"source": "mrds", "name": "Foggy", "type": "Unknown", "weight": 1.0}}, {"type": "Feature", "geometry": {"type": "Point", "coordinates": [-121.467, 47.63951]}, "properties": {"source": "mrds", "name": "Silver Star", "type": "Unknown", "weight": 1.0}}, {"type": "Feature", "geometry": {"type": "Point", "coordinates": [-122.06515, 48.75701]}, "properties": {"source": "mrds", "name": "Bowman Mountain Asbestos", "type": "Unknown", "weight": 0.5}}, {"type": "Feature", "geometry": {"type": "Point", "coordinates": [-118.13861, 47.98595]}, "properties": {"source": "mrds", "name": "Orazada", "type": "Unknown", "weight": 1.0}}, {"type": "Feature", "geometry": {"type": "Point", "coordinates": [-121.36341, 47.98562]}, "properties": {"source": "mrds", "name": "Philo", "type": "Unknown", "weight": 1.0}}, {"type": "Feature", "geometry": {"type": "Point", "coordinates": [-121.4751, 47.63951]}, "properties": {"source": "mrds", "name": "Dawson", "type": "Unknown", "weight": 1.0}}, {"type": "Feature", "geometry": {"type": "Point", "coordinates": [-118.18723, 48.93845]}, "properties": {"source": "mrds", "name": "Carl Sanstrom", "type": "Unknown", "weight": 0.5}}, {"type": "Feature", "geometry": {"type": "Point", "coordinates": [-120.64618, 47.83952]}, "properties": {"source": "mrds", "name": "Goose Creek", "type": "Unknown", "weight": 0.5}}, {"type": "Feature", "geometry": {"type": "Point", "coordinates": [-122.72143, 42.04263]}, "properties": {"source": "mrds", "name": "H P Antimony", "type": "Unknown", "weight": 1.0}}, {"type": "Feature", "geometry": {"type": "Point", "coordinates": [-121.35431, 48.04792]}, "properties": {"source": "mrds", "name": "Phoenix Asbestos", "type": "Unknown", "weight": 1.0}}, {"type": "Feature", "geometry": {"type": "Point", "coordinates": [-115.79346, 43.88708]}, "properties": {"source": "mrds", "name": "Gambrinus Mine", "type": "Unknown", "weight": 1.0}}, {"type": "Feature", "geometry": {"type": "Point", "coordinates": [-115.35674, 43.86408]}, "properties": {"source": "mrds", "name": "Black Warrior Mine", "type": "Unknown", "weight": 1.0}}, {"type": "Feature", "geometry": {"type": "Point", "coordinates": [-116.31632, 46.53566]}, "properties": {"source": "mrds", "name": "Olson Asbestos", "type": "Unknown", "weight": 1.0}}, {"type": "Feature", "geometry": {"type": "Point", "coordinates": [-116.77317, 42.93378]}, "properties": {"source": "mrds", "name": "Silver Queen", "type": "Unknown", "weight": 1.0}}, {"type": "Feature", "geometry": {"type": "Point", "coordinates": [-116.73787, 43.07348]}, "properties": {"source": "mrds", "name": "Slacks Mountain Prospect", "type": "Unknown", "weight": 1.0}}, {"type": "Feature", "geometry": {"type": "Point", "coordinates": [-115.32406, 45.13738]}, "properties": {"source": "mrds", "name": "Elliott", "type": "Unknown", "weight": 0.5}}, {"type": "Feature", "geometry": {"type": "Point", "coordinates": [-116.17213, 47.48047]}, "properties": {"source": "mrds", "name": "Nevada Stewart Mine", "type": "Unknown", "weight": 1.0}}, {"type": "Feature", "geometry": {"type": "Point", "coordinates": [-116.70487, 42.90128]}, "properties": {"source": "mrds", "name": "Boulder Creek Mines", "type": "Unknown", "weight": 1.0}}, {"type": "Feature", "geometry": {"type": "Point", "coordinates": [-116.05183, 47.51237]}, "properties": {"source": "mrds", "name": "(Facility) Sunshine Antimony Refinery", "type": "Unknown", "weight": 1.0}}, {"type": "Feature", "geometry": {"type": "Point", "coordinates": [-115.26316, 45.19548]}, "properties": {"source": "mrds", "name": "Mulligan Group", "type": "Unknown", "weight": 1.0}}, {"type": "Feature", "geometry": {"type": "Point", "coordinates": [-123.14864, 42.09293]}, "properties": {"source": "mrds", "name": "Blue Jay Antimony", "type": "Unknown", "weight": 1.0}},