{"type":"FeatureCollection","features":[{"type":"Feature","geometry":{"type":"Point","coordinates":[-117.702833,44.021844]},"properties":{"name":"WMM 09","source":"blm","type":"Filed","weight":0.5}},{"type":"Feature","geometry":{"type":"Point","coordinates":[-117.702833,44.021844]},"properties":{"name":"WMM 10","source":"blm","type":"Filed","weight":0.5}},{"type":"Feature","geometry":{"type":"Point","coordinates":[-117.702833,44.021844]},"properties":{"name":"WMM 11","source":"blm","type":"Filed","weight":0.5}},{"type":"Feature","geometry":{"type":"Point","coordinates":[-117.692822,44.021962]},"properties":{"name":"WMM 14","source":"blm","type":"Filed","weight":0.5}},{"type":"Feature","geometry":{"type":"Point","coordinates":[-117.702833,44.021844]},"properties":{"name":"WMM 12","source":"blm","type":"Filed","weight":0.5}},{"type":"Feature","geometry":{"type":"Point","coordinates":[-117.692822,44.021962]},"properties":{"name":"WMM 16","source":"blm","type":"Filed","weight":0.5}},{"type":"Feature","geometry":{"type":"Point","coordinates":[-117.692822,44.021962]},"properties":{"name":"WMM 13","source":"blm","type":"Filed","weight":0.5}},{"type":"Feature","geometry":{"type":"Point","coordinates":[-117.692822,44.021962]},"properties":{"name":"WMM 15","source":"blm","type":"Filed","weight":0.5}},{"type":"Feature","geometry":{"type":"Point","coordinates":[-116.691032,44.553203]},"properties":{"name":"The Fork","source":"blm","type":"Active","weight":0.5}},{"type":"Feature","geometry":{"type":"Point","coordinates":[-111.792841,46.671936]},"properties":{"name":"Will","source":"blm","type":"Active","weight":0.5}},{"type":"Feature","geometry":{"type":"Point","coordinates":[-122.954309,41.998352]},"properties":{"name":"New Hope","source":"blm","type":"Active","weight":0.5}},{"type":"Feature","geometry":{"type":"Point","coordinates":[-118.246849,44.592322]},"properties":{"name":"Burnt Gold #506","source":"blm","type":"Active","weight":0.5}},{"type":"Feature","geometry":{"type":"Point","coordinates":[-124.260974,42.808902]},"properties":{"name":"RM Sixes","source":"blm","type":"Active","weight":0.5}},{"type":"Feature","geometry":{"type":"Point","coordinates":[-120.688621,47.382856]},"properties":{"name":"SUNSHINE","source":"blm","type":"Active","weight":0.5}},{"type":"Feature","geometry":{"type":"Point","coordinates":[-115.872973,48.580182]},"properties":{"name":"Backwoods Gold #2","source":"blm","type":"Active","weight":0.5}},{"type":"Feature","geometry":{"type":"Point","coordinates":[-123.534138,42.836801]},"properties":{"name":"LOTSA GOLD","source":"blm","type":"Active","weight":0.5}},{"type":"Feature","geometry":{"type":"Point","coordinates":[-122.218351,45.830419]},"properties":{"name":"Lewis #1","source":"blm","type":"Active","weight":0.5}},{"type":"Feature","geometry":{"type":"Point","coordinates":[-122.218351,45.830419]},"properties":{"name":"Lewis #2","source":"blm","type":"Active","weight":0.5}},{"type":"Feature","geometry":{"type":"Point","coordinates":[-111.633813,46.188245]},"properties":{"name":"Hill Top","source":"blm","type":"Active","weight":0.5}},{"type":"Feature","geometry":{"type":"Point","coordinates":[-115.489633,45.818229]},"properties":{"name":"ROCKY POINT PLACER","source":"blm","type":"Filed","weight":0.5}},{"type":"Feature","geometry":{"type":"Point","coordinates":[-115.500007,45.825512]},"properties":{"name":"STAR DUST BEND","source":"blm","type":"Filed","weight":0.5}},{"type":"Feature","geometry":{"type":"Point","coordinates":[-115.631654,45.815243]},"properties":{"name":"LITTLE NUGGETS","source":"blm","type":"Filed","weight":0.5}},{"type":"Feature","geometry":{"type":"Point","coordinates":[-117.916228,44.561476]},"properties":{"name":"Bull Dog #9","source":"blm","type":"Active","weight":0.5}},{"type":"Feature","geometry":{"type":"Point","coordinates":[-123.711743,42.438154]},"properties":{"name":"Cupid 2 + 3","source":"blm","type":"Active","weight":0.5}},{"type":"Feature","geometry":{"type":"Point","coordinates":[-123.706855,42.438154]},"properties":{"name":"Cupid","source":"blm","type":"Active","weight":0.5}},{"type":"Feature","geometry":{"type":"Point","coordinates":[-123.533171,42.835027]},"properties":{"name":"New Beginnings","source":"blm","type":"Active","weight":0.5}},{"type":"Feature","geometry":{"type":"Point","coordinates":[-112.266349,46.495813]},"properties":{"name":"Golden Rimini","source":"blm","type":"Active","weight":0.5}},{"type":"Feature","geometry":{"type":"Point","coordinates":[-113.212178,46.2444]},"properties":{"name":"Big Jack","source":"blm","type":"Active","weight":0.5}},{"type":"Feature","geometry":{"type":"Point","coordinates":[-111.650482,46.668473]},"properties":{"name":"Golden Magpie","source":"blm","type":"Active","weight":0.5}},{"type":"Feature","geometry":{"type":"Point","coordinates":[-113.212178,46.2444]},"properties":{"name":"Little Joe","source":"blm","type":"Active","weight":0.5}},{"type":"Feature","geometry":{"type":"Point","coordinates":[-113.212178,46.2444]},"properties":{"name":"Orphan Girl","source":"blm","type":"Active","weight":0.5}},{"type":"Feature","geometry":{"type":"Point","coordinates":[-112.937128,46.465358]},"properties":{"name":"Grubstake","source":"blm","type":"Active","weight":0.5}},{"type":"Feature","geometry":{"type":"Point","coordinates":[-115.777952,47.615818]},"properties":{"name":"Honey Bear","source":"blm","type":"Active","weight":0.5}},{"type":"Feature","geometry":{"type":"Point","coordinates":[-115.777966,47.619437]},"properties":{"name":"Polar Bear","source":"blm","type":"Active","weight":0.5}},{"type":"Feature","geometry":{"type":"Point","coordinates":[-111.615717,46.468425]},"properties":{"name":"Texas Kid","source":"blm","type":"Active","weight":0.5}},{"type":"Feature","geometry":{"type":"Point","coordinates":[-117.918709,44.55662]},"properties":{"name":"Bull Dog #10","source":"blm","type":"Under Review","weight":0.5}},{"type":"Feature","geometry":{"type":"Point","coordinates":[-123.323494,42.597136]},"properties":{"name":"Disco Gypsy II","source":"blm","type":"Active","weight":0.5}},{"type":"Feature","geometry":{"type":"Point","coordinates":[-123.323494,42.597136]},"properties":{"name":"Disco Gypsy I","source":"blm","type":"Active","weight":0.5}},{"type":"Feature","geometry":{"type":"Point","coordinates":[-123.724035,42.414553]},"properties":{"name":"Courier 2","source":"blm","type":"Active","weight":0.5}},{"type":"Feature","geometry":{"type":"Point","coordinates":[-123.724035,42.414553]},"properties":{"name":"Courier 3","source":"blm","type":"Active","weight":0.5}},{"type":"Feature","geometry":{"type":"Point","coordinates":[-123.663836,42.547674]},"properties":{"name":"Golden Slide","source":"blm","type":"Active","weight":0.5}},{"type":"Feature","geometry":{"type":"Point","coordinates":[-111.677008,46.313614]},"properties":{"name":"Klondike Kate","source":"blm","type":"Active","weight":0.5}},{"type":"Feature","geometry":{"type":"Point","coordinates":[-115.206927,43.663295]},"properties":{"name":"VINCENT VEIN","source":"blm","type":"Filed","weight":0.5}},{"type":"Feature","geometry":{"type":"Point","coordinates":[-115.863329,44.32643]},"properties":{"name":"Idaho Golden Waters","source":"blm","type":"Filed","weight":0.5}},{"type":"Feature","geometry":{"type":"Point","coordinates":[-115.863338,44.311844]},"properties":{"name":"Golder Paradise","source":"blm","type":"Filed","weight":0.5}},{"type":"Feature","geometry":{"type":"Point","coordinates":[-123.656244,42.807352]},"properties":{"name":"West Fork Diggins","source":"blm","type":"Active","weight":0.5}},{"type":"Feature","geometry":{"type":"Point","coordinates":[-115.868359,44.31553]},"properties":{"name":"Idaho Gold Land","source":"blm","type":"Filed","weight":0.5}},{"type":"Feature","geometry":{"type":"Point","coordinates":[-115.868359,44.31553]},"properties":{"name":"Idaho Gold","source":"blm","type":"Filed","weight":0.5}},{"type":"Feature","geometry":{"type":"Point","coordinates":[-122.35404,44.245688]},"properties":{"name":"Patriot Falls","source":"blm","type":"Active","weight":0.5}},{"type":"Feature","geometry":{"type":"Point","coordinates":[-123.203195,42.155387]},"properties":{"name":"Bee Mine","source":"blm","type":"Active","weight":0.5}},{"type":"Feature","geometry":{"type":"Point","coordinates":[-123.058165,42.116308]},"properties":{"name":"Golden Eagle","source":"blm","type":"Active","weight":0.5}},{"type":"Feature","geometry":{"type":"Point","coordinates":[-120.660647,47.44557]},"properties":{"name":"Sylivia Nadine","source":"blm","type":"Active","weight":0.5}},{"type":"Feature","geometry":{"type":"Point","coordinates":[-123.018342,42.276259]},"properties":{"name":"Poorman Placer","source":"blm","type":"Active","weight":0.5}},{"type":"Feature","geometry":{"type":"Point","coordinates":[-117.547839,44.577899]},"properties":{"name":"Burnt Out 1","source":"blm","type":"Active","weight":0.5}},{"type":"Feature","geometry":{"type":"Point","coordinates":[-111.677106,46.342572]},"properties":{"name":"Phoenix Placer","source":"blm","type":"Active","weight":0.5}},{"type":"Feature","geometry":{"type":"Point","coordinates":[-115.787055,43.918474]},"properties":{"name":"The Silver Ghost #1","source":"blm","type":"Filed","weight":0.5}},{"type":"Feature","geometry":{"type":"Point","coordinates":[-115.791674,43.914962]},"properties":{"name":"The Silver Ghost #2","source":"blm","type":"Active","weight":0.5}},{"type":"Feature","geometry":{"type":"Point","coordinates":[-112.401313,46.443787]},"properties":{"name":"Elliston Gold","source":"blm","type":"Active","weight":0.5}},{"type":"Feature","geometry":{"type":"Point","coordinates":[-123.508888,42.020551]},"properties":{"name":"Wild Boar 3","source":"blm","type":"Active","weight":0.5}},{"type":"Feature","geometry":{"type":"Point","coordinates":[-123.528329,42.013392]},"properties":{"name":"Wild Boar 2","source":"blm","type":"Active","weight":0.5}},{"type":"Feature","geometry":{"type":"Point","coordinates":[-123.097776,42.094517]},"properties":{"name":"Goldmember","source":"blm","type":"Active","weight":0.5}},{"type":"Feature","geometry":{"type":"Point","coordinates":[-115.870307,43.929777]},"properties":{"name":"Brandi Lee","source":"blm","type":"Active","weight":0.5}},{"type":"Feature","geometry":{"type":"Point","coordinates":[-115.99858,42.778747]},"properties":{"name":"Jack Shaft","source":"blm","type":"Filed","weight":0.5}},{"type":"Feature","geometry":{"type":"Point","coordinates":[-112.276785,46.400283]},"properties":{"name":"The Magdelena Placer","source":"blm","type":"Active","weight":0.5}},{"type":"Feature","geometry":{"type":"Point","coordinates":[-112.276785,46.400283]},"properties":{"name":"The Yorkshire","source":"blm","type":"Active","weight":0.5}},{"type":"Feature","geometry":{"type":"Point","coordinates":[-114.91466,47.083439]},"properties":{"name":"Trout Creek Gold","source":"blm","type":"Active","weight":0.5}},{"type":"Feature","geometry":{"type":"Point","coordinates":[-115.792722,43.829393]},"properties":{"name":"Ace N Hole II","source":"blm","type":"Filed","weight":0.5}},{"type":"Feature","geometry":{"type":"Point","coordinates":[-118.626048,44.669897]},"properties":{"name":"Black Pearl Gold","source":"blm","type":"Active","weight":0.5}},{"type":"Feature","geometry":{"type":"Point","coordinates":[-113.513441,46.084568]},"properties":{"name":"Desperado","source":"blm","type":"Active","weight":0.5}},{"type":"Feature","geometry":{"type":"Point","coordinates":[-112.110455,46.458359]},"properties":{"name":"Molly 1","source":"blm","type":"Active","weight":0.5}},{"type":"Feature","geometry":{"type":"Point","coordinates":[-112.072992,46.476388]},"properties":{"name":"Molly 2","source":"blm","type":"Active","weight":0.5}},{"type":"Feature","geometry":{"type":"Point","coordinates":[-111.650482,46.668473]},"properties":{"name":"Magpie Gold","source":"blm","type":"Active","weight":0.5}},{"type":"Feature","geometry":{"type":"Point","coordinates":[-111.650482,46.668473]},"properties":{"name":"Alexander Placer","source":"blm","type":"Active","weight":0.5}},{"type":"Feature","geometry":{"type":"Point","coordinates":[-113.632253,43.879287]},"properties":{"name":"LMS34","source":"blm","type":"Filed","weight":0.5}},{"type":"Feature","geometry":{"type":"Point","coordinates":[-122.278225,44.565104]},"properties":{"name":"M & M B","source":"blm","type":"Active","weight":0.5}},{"type":"Feature","geometry":{"type":"Point","coordinates":[-112.343366,46.197096]},"properties":{"name":"Highlander Placer","source":"blm","type":"Active","weight":0.5}},{"type":"Feature","geometry":{"type":"Point","coordinates":[-112.895805,45.29723]},"properties":{"name":"The Sunrise Placer","source":"blm","type":"Active","weight":0.5}},{"type":"Feature","geometry":{"type":"Point","coordinates":[-116.674676,43.013009]},"properties":{"name":"Gilty Ingot 2","source":"blm","type":"Filed","weight":0.5}},{"type":"Feature","geometry":{"type":"Point","coordinates":[-116.008975,43.930108]},"properties":{"name":"Double D","source":"blm","type":"Filed","weight":0.5}},{"type":"Feature","geometry":{"type":"Point","coordinates":[-116.008975,43.930108]},"properties":{"name":"Vado Arroyo","source":"blm","type":"Filed","weight":0.5}},{"type":"Feature","geometry":{"type":"Point","coordinates":[-115.209409,43.665109]},"properties":{"name":"GOLDEN GIGI","source":"blm","type":"Active","weight":0.5}},{"type":"Feature","geometry":{"type":"Point","coordinates":[-123.827381,43.783566]},"properties":{"name":"Tahkenitch Gold","source":"blm","type":"Active","weight":0.5}},{"type":"Feature","geometry":{"type":"Point","coordinates":[-112.900941,45.293606]},"properties":{"name":"The Starlight Placer","source":"blm","type":"Active","weight":0.5}},{"type":"Feature","geometry":{"type":"Point","coordinates":[-111.803429,46.686314]},"properties":{"name":"Miller Time","source":"blm","type":"Active","weight":0.5}},{"type":"Feature","geometry":{"type":"Point","coordinates":[-115.888671,47.608483]},"properties":{"name":"Snow Shoe","source":"blm","type":"Filed","weight":0.5}},{"type":"Feature","geometry":{"type":"Point","coordinates":[-115.801915,47.611222]},"properties":{"name":"Yanmar","source":"blm","type":"Filed","weight":0.5}},{"type":"Feature","geometry":{"type":"Point","coordinates":[-115.271722,43.712604]},"properties":{"name":"Upper Strike 2","source":"blm","type":"Active","weight":0.5}},{"type":"Feature","geometry":{"type":"Point","coordinates":[-118.823012,45.00176]},"properties":{"name":"NFJDR # O1","source":"blm","type":"Filed","weight":0.5}},{"type":"Feature","geometry":{"type":"Point","coordinates":[-118.825523,44.99995]},"properties":{"name":"NFJDR # O2","source":"blm","type":"Under Review","weight":0.5}},{"type":"Feature","geometry":{"type":"Point","coordinates":[-113.150542,46.41848]},"properties":{"name":"The Princeton Placer","source":"blm","type":"Active","weight":0.5}},{"type":"Feature","geometry":{"type":"Point","coordinates":[-115.291745,43.710819]},"properties":{"name":"Nebu Steel 1","source":"blm","type":"Active","weight":0.5}},{"type":"Feature","geometry":{"type":"Point","coordinates":[-115.291745,43.710819]},"properties":{"name":"Nebu Steel 2","source":"blm","type":"Active","weight":0.5}},{"type":"Feature","geometry":{"type":"Point","coordinates":[-115.296727,43.706853]},"properties":{"name":"Auric Steel 2","source":"blm","type":"Active","weight":0.5}},{"type":"Feature","geometry":{"type":"Point","coordinates":[-115.296727,43.706853]},"properties":{"name":"Auric Steel 3","source":"blm","type":"Active","weight":0.5}},{"type":"Feature","geometry":{"type":"Point","coordinates":[-118.133957,42.030586]},"properties":{"name":"HTM 420","source":"blm","type":"Active","weight":0.5}},{"type":"Feature","geometry":{"type":"Point","coordinates":[-118.133957,42.030586]},"properties":{"name":"HTM 421","source":"blm","type":"Active","weight":0.5}},{"type":"Feature","geometry":{"type":"Point","coordinates":[-118.133957,42.030586]},"properties":{"name":"HTM 422","source":"blm","type":"Active","weight":0.5}},{"type":"Feature","geometry":{"type":"Point","coordinates":[-118.133957,42.030586]},"properties":{"name":"HTM 423","source":"blm","type":"Active","weight":0.5}},{"type":"Feature","geometry":{"type":"Point","coordinates":[-118.124246,42.03057]},"properties":{"name":"HTM 424","source":"blm","type":"Active","weight":0.5}},{"type":"Feature","geometry":{"type":"Point","coordinates":[-118.124246,42.03057]},"properties":{"name":"HTM 425","source":"blm","type":"Active","weight":0.5}},{"type":"Feature","geometry":{"type":"Point","coordinates":[-118.124246,42.03057]},"properties":{"name":"HTM 426","source":"blm","type":"Active","weight":0.5}},{"type":"Feature","geometry":{"type":"Point","coordinates":[-118.124246,42.03057]},"properties":{"name":"HTM 427","source":"blm","type":"Active","weight":0.5}},{"type":"Feature","geometry":{"type":"Point","coordinates":[-118.114524,42.030544]},"properties":{"name":"HTM 429","source":"blm","type":"Active","weight":0.5}},{"type":"Feature","geometry":{"type":"Point","coordinates":[-118.133977,42.02333]},"properties":{"name":"HTM 431","source":"blm","type":"Active","weight":0.5}},{"type":"Feature","geometry":{"type":"Point","coordinates":[-118.133977,42.02333]},"properties":{"name":"HTM 433","source":"blm","type":"Active","weight":0.5}},{"type":"Feature","geometry":{"type":"Point","coordinates":[-118.114543,42.026926]},"properties":{"name":"HTM 434","source":"blm","type":"Active","weight":0.5}},{"type":"Feature","geometry":{"type":"Point","coordinates":[-118.133977,42.02333]},"properties":{"name":"HTM 438","source":"blm","type":"Active","weight":0.5}},{"type":"Feature","geometry":{"type":"Point","coordinates":[-118.133977,42.02333]},"properties":{"name":"HTM 439","source":"blm","type":"Active","weight":0.5}},{"type":"Feature","geometry":{"type":"Point","coordinates":[-118.133977,42.02333]},"properties":{"name":"HTM 440","source":"blm","type":"Active","weight":0.5}},{"type":"Feature","geometry":{"type":"Point","coordinates":[-118.134005,42.016068]},"properties":{"name":"HTM 448","source":"blm","type":"Active","weight":0.5}},{"type":"Feature","geometry":{"type":"Point","coordinates":[-118.134005,42.016068]},"properties":{"name":"HTM 449","source":"blm","type":"Active","weight":0.5}},{"type":"Feature","geometry":{"type":"Point","coordinates":[-118.124306,42.016069]},"properties":{"name":"HTM 452","source":"blm","type":"Active","weight":0.5}},{"type":"Feature","geometry":{"type":"Point","coordinates":[-118.124306,42.016069]},"properties":{"name":"HTM 453","source":"blm","type":"Active","weight":0.5}},{"type":"Feature","geometry":{"type":"Point","coordinates":[-118.124306,42.016069]},"properties":{"name":"HTM 455","source":"blm","type":"Active","weight":0.5}},{"type":"Feature","geometry":{"type":"Point","coordinates":[-118.134005,42.016068]},"properties":{"name":"HTM 461","source":"blm","type":"Active","weight":0.5}},{"type":"Feature","geometry":{"type":"Point","coordinates":[-118.134005,42.016068]},"properties":{"name":"HTM 463","source":"blm","type":"Active","weight":0.5}},{"type":"Feature","geometry":{"type":"Point","coordinates":[-118.124306,42.016069]},"properties":{"name":"HTM 464","source":"blm","type":"Active","weight":0.5}},{"type":"Feature","geometry":{"type":"Point","coordinates":[-118.124306,42.016069]},"properties":{"name":"HTM 466","source":"blm","type":"Active","weight":0.5}},{"type":"Feature","geometry":{"type":"Point","coordinates":[-118.1146,42.016066]},"properties":{"name":"HTM 468","source":"blm","type":"Active","weight":0.5}},{"type":"Feature","geometry":{"type":"Point","coordinates":[-118.134039,42.008801]},"properties":{"name":"HTM 480","source":"blm","type":"Active","weight":0.5}},{"type":"Feature","geometry":{"type":"Point","coordinates":[-118.134039,42.008801]},"properties":{"name":"HTM 482","source":"blm","type":"Active","weight":0.5}},{"type":"Feature","geometry":{"type":"Point","coordinates":[-118.134039,42.008801]},"properties":{"name":"HTM 483","source":"blm","type":"Active","weight":0.5}},{"type":"Feature","geometry":{"type":"Point","coordinates":[-118.124338,42.008821]},"properties":{"name":"HTM 484","source":"blm","type":"Active","weight":0.5}},{"type":"Feature","geometry":{"type":"Point","coordinates":[-118.124338,42.008821]},"properties":{"name":"HTM 487","source":"blm","type":"Active","weight":0.5}},{"type":"Feature","geometry":{"type":"Point","coordinates":[-118.114642,42.008829]},"properties":{"name":"HTM 488","source":"blm","type":"Active","weight":0.5}},{"type":"Feature","geometry":{"type":"Point","coordinates":[-118.114642,42.008829]},"properties":{"name":"HTM 489","source":"blm","type":"Active","weight":0.5}},{"type":"Feature","geometry":{"type":"Point","coordinates":[-118.114642,42.008829]},"properties":{"name":"HTM 490","source":"blm","type":"Active","weight":0.5}},{"type":"Feature","geometry":{"type":"Point","coordinates":[-118.114642,42.008829]},"properties":{"name":"HTM 491","source":"blm","type":"Active","weight":0.5}},{"type":"Feature","geometry":{"type":"Point","coordinates":[-118.104956,42.008822]},"properties":{"name":"HTM 492","source":"blm","type":"Active","weight":0.5}},{"type":"Feature","geometry":{"type":"Point","coordinates":[-118.104956,42.008822]},"properties":{"name":"HTM 493","source":"blm","type":"Active","weight":0.5}},{"type":"Feature","geometry":{"type":"Point","coordinates":[-118.047215,42.00859]},"properties":{"name":"HTM 496","source":"blm","type":"Active","weight":0.5}},{"type":"Feature","geometry":{"type":"Point","coordinates":[-118.047215,42.00859]},"properties":{"name":"HTM 497","source":"blm","type":"Active","weight":0.5}},{"type":"Feature","geometry":{"type":"Point","coordinates":[-118.134039,42.008801]},"properties":{"name":"HTM 500","source":"blm","type":"Active","weight":0.5}},{"type":"Feature","geometry":{"type":"Point","coordinates":[-118.134039,42.008801]},"properties":{"name":"HTM 502","source":"blm","type":"Active","weight":0.5}},{"type":"Feature","geometry":{"type":"Point","coordinates":[-118.134039,42.008801]},"properties":{"name":"HTM 503","source":"blm","type":"Active","weight":0.5}},{"type":"Feature","geometry":{"type":"Point","coordinates":[-118.124338,42.008821]},"properties":{"name":"HTM 504","source":"blm","type":"Active","weight":0.5}},{"type":"Feature","geometry":{"type":"Point","coordinates":[-118.124338,42.008821]},"properties":{"name":"HTM 505","source":"blm","type":"Active","weight":0.5}},{"type":"Feature","geometry":{"type":"Point","coordinates":[-118.114642,42.008829]},"properties":{"name":"HTM 508","source":"blm","type":"Active","weight":0.5}},{"type":"Feature","geometry":{"type":"Point","coordinates":[-118.114642,42.008829]},"properties":{"name":"HTM 510","source":"blm","type":"Active","weight":0.5}},{"type":"Feature","geometry":{"type":"Point","coordinates":[-118.114642,42.008829]},"properties":{"name":"HTM 511","source":"blm","type":"Active","weight":0.5}},{"type":"Feature","geometry":{"type":"Point","coordinates":[-118.104956,42.008822]},"properties":{"name":"HTM 512","source":"blm","type":"Active","weight":0.5}},{"type":"Feature","geometry":{"type":"Point","coordinates":[-118.104956,42.008822]},"properties":{"name":"HTM 513","source":"blm","type":"Active","weight":0.5}},{"type":"Feature","geometry":{"type":"Point","coordinates":[-118.104956,42.008822]},"properties":{"name":"HTM 514","source":"blm","type":"Active","weight":0.5}},{"type":"Feature","geometry":{"type":"Point","coordinates":[-118.104956,42.008822]},"properties":{"name":"HTM 515","source":"blm","type":"Active","weight":0.5}},{"type":"Feature","geometry":{"type":"Point","coordinates":[-118.095232,42.008803]},"properties":{"name":"HTM 516","source":"blm","type":"Active","weight":0.5}},{"type":"Feature","geometry":{"type":"Point","coordinates":[-118.095232,42.008803]},"properties":{"name":"HTM 517","source":"blm","type":"Active","weight":0.5}},{"type":"Feature","geometry":{"type":"Point","coordinates":[-118.13406,42.001572]},"properties":{"name":"HTM 533","source":"blm","type":"Active","weight":0.5}},{"type":"Feature","geometry":{"type":"Point","coordinates":[-118.13406,42.001572]},"properties":{"name":"HTM 534","source":"blm","type":"Active","weight":0.5}},{"type":"Feature","geometry":{"type":"Point","coordinates":[-118.13406,42.001572]},"properties":{"name":"HTM 535","source":"blm","type":"Active","weight":0.5}},{"type":"Feature","geometry":{"type":"Point","coordinates":[-118.124346,42.00159]},"properties":{"name":"HTM 536","source":"blm","type":"Active","weight":0.5}},{"type":"Feature","geometry":{"type":"Point","coordinates":[-118.124346,42.00159]},"properties":{"name":"HTM 537","source":"blm","type":"Active","weight":0.5}},{"type":"Feature","geometry":{"type":"Point","coordinates":[-118.124346,42.00159]},"properties":{"name":"HTM 538","source":"blm","type":"Active","weight":0.5}},{"type":"Feature","geometry":{"type":"Point","coordinates":[-118.124346,42.00159]},"properties":{"name":"HTM 539","source":"blm","type":"Active","weight":0.5}},{"type":"Feature","geometry":{"type":"Point","coordinates":[-118.114642,42.001599]},"properties":{"name":"HTM 540","source":"blm","type":"Active","weight":0.5}},{"type":"Feature","geometry":{"type":"Point","coordinates":[-118.114642,42.001599]},"properties":{"name":"HTM 541","source":"blm","type":"Active","weight":0.5}},{"type":"Feature","geometry":{"type":"Point","coordinates":[-118.114642,42.001599]},"properties":{"name":"HTM 543","source":"blm","type":"Active","weight":0.5}},{"type":"Feature","geometry":{"type":"Point","coordinates":[-118.104936,42.001603]},"properties":{"name":"HTM 544","source":"blm","type":"Active","weight":0.5}},{"type":"Feature","geometry":{"type":"Point","coordinates":[-118.104936,42.001603]},"properties":{"name":"HTM 546","source":"blm","type":"Active","weight":0.5}},{"type":"Feature","geometry":{"type":"Point","coordinates":[-118.104936,42.001603]},"properties":{"name":"HTM 547","source":"blm","type":"Active","weight":0.5}},{"type":"Feature","geometry":{"type":"Point","coordinates":[-118.095218,42.001591]},"properties":{"name":"HTM 548","source":"blm","type":"Active","weight":0.5}},{"type":"Feature","geometry":{"type":"Point","coordinates":[-118.095218,42.001591]},"properties":{"name":"HTM 549","source":"blm","type":"Active","weight":0.5}},{"type":"Feature","geometry":{"type":"Point","coordinates":[-118.095218,42.001591]},"properties":{"name":"HTM 550","source":"blm","type":"Active","weight":0.5}},{"type":"Feature","geometry":{"type":"Point","coordinates":[-118.095218,42.001591]},"properties":{"name":"HTM 551","source":"blm","type":"Active","weight":0.5}},{"type":"Feature","geometry":{"type":"Point","coordinates":[-118.085488,42.001539]},"properties":{"name":"HTM 552","source":"blm","type":"Active","weight":0.5}},{"type":"Feature","geometry":{"type":"Point","coordinates":[-118.085488,42.001539]},"properties":{"name":"HTM 553","source":"blm","type":"Active","weight":0.5}},{"type":"Feature","geometry":{"type":"Point","coordinates":[-118.037474,42.001479]},"properties":{"name":"HTM 554","source":"blm","type":"Active","weight":0.5}},{"type":"Feature","geometry":{"type":"Point","coordinates":[-118.032604,42.001503]},"properties":{"name":"HTM 555","source":"blm","type":"Active","weight":0.5}},{"type":"Feature","geometry":{"type":"Point","coordinates":[-118.124346,42.00159]},"properties":{"name":"HTM 556","source":"blm","type":"Active","weight":0.5}},{"type":"Feature","geometry":{"type":"Point","coordinates":[-118.124346,42.00159]},"properties":{"name":"HTM 557","source":"blm","type":"Active","weight":0.5}},{"type":"Feature","geometry":{"type":"Point","coordinates":[-118.124346,42.00159]},"properties":{"name":"HTM 558","source":"blm","type":"Active","weight":0.5}},{"type":"Feature","geometry":{"type":"Point","coordinates":[-118.124346,42.00159]},"properties":{"name":"HTM 559","source":"blm","type":"Active","weight":0.5}},{"type":"Feature","geometry":{"type":"Point","coordinates":[-118.114642,42.001599]},"properties":{"name":"HTM 560","source":"blm","type":"Active","weight":0.5}},{"type":"Feature","geometry":{"type":"Point","coordinates":[-118.114642,42.001599]},"properties":{"name":"HTM 562","source":"blm","type":"Active","weight":0.5}},{"type":"Feature","geometry":{"type":"Point","coordinates":[-118.114642,42.001599]},"properties":{"name":"HTM 563","source":"blm","type":"Active","weight":0.5}},{"type":"Feature","geometry":{"type":"Point","coordinates":[-118.104936,42.001603]},"properties":{"name":"HTM 564","source":"blm","type":"Active","weight":0.5}},{"type":"Feature","geometry":{"type":"Point","coordinates":[-118.104936,42.001603]},"properties":{"name":"HTM 565","source":"blm","type":"Active","weight":0.5}},{"type":"Feature","geometry":{"type":"Point","coordinates":[-118.104936,42.001603]},"properties":{"name":"HTM 566","source":"blm","type":"Active","weight":0.5}},{"type":"Feature","geometry":{"type":"Point","coordinates":[-118.095218,42.001591]},"properties":{"name":"HTM 568","source":"blm","type":"Active","weight":0.5}},{"type":"Feature","geometry":{"type":"Point","coordinates":[-118.085488,42.001539]},"properties":{"name":"HTM 572","source":"blm","type":"Active","weight":0.5}},{"type":"Feature","geometry":{"type":"Point","coordinates":[-118.085488,42.001539]},"properties":{"name":"HTM 575","source":"blm","type":"Active","weight":0.5}},{"type":"Feature","geometry":{"type":"Point","coordinates":[-118.0713,42.001436]},"properties":{"name":"HTM 577","source":"blm","type":"Active","weight":0.5}},{"type":"Feature","geometry":{"type":"Point","coordinates":[-118.052096,42.001422]},"properties":{"name":"HTM 578","source":"blm","type":"Active","weight":0.5}},{"type":"Feature","geometry":{"type":"Point","coordinates":[-118.052096,42.001422]},"properties":{"name":"HTM 579","source":"blm","type":"Active","weight":0.5}},{"type":"Feature","geometry":{"type":"Point","coordinates":[-118.032604,42.001503]},"properties":{"name":"HTM 584","source":"blm","type":"Active","weight":0.5}},{"type":"Feature","geometry":{"type":"Point","coordinates":[-118.032604,42.001503]},"properties":{"name":"HTM 585","source":"blm","type":"Active","weight":0.5}},{"type":"Feature","geometry":{"type":"Point","coordinates":[-118.114562,42.023304]},"properties":{"name":"HTM 444","source":"blm","type":"Active","weight":0.5}},{"type":"Feature","geometry":{"type":"Point","coordinates":[-118.134005,42.016068]},"properties":{"name":"HTM 450","source":"blm","type":"Active","weight":0.5}},{"type":"Feature","geometry":{"type":"Point","coordinates":[-118.124306,42.016069]},"properties":{"name":"HTM 454","source":"blm","type":"Active","weight":0.5}},{"type":"Feature","geometry":{"type":"Point","coordinates":[-118.104892,42.016058]},"properties":{"name":"HTM 456","source":"blm","type":"Active","weight":0.5}},{"type":"Feature","geometry":{"type":"Point","coordinates":[-118.134005,42.016068]},"properties":{"name":"HTM 462","source":"blm","type":"Active","weight":0.5}},{"type":"Feature","geometry":{"type":"Point","coordinates":[-118.134039,42.008801]},"properties":{"name":"HTM 481","source":"blm","type":"Active","weight":0.5}},{"type":"Feature","geometry":{"type":"Point","coordinates":[-118.124338,42.008821]},"properties":{"name":"HTM 485","source":"blm","type":"Active","weight":0.5}},{"type":"Feature","geometry":{"type":"Point","coordinates":[-118.124338,42.008821]},"properties":{"name":"HTM 486","source":"blm","type":"Active","weight":0.5}},{"type":"Feature","geometry":{"type":"Point","coordinates":[-118.095218,42.001591]},"properties":{"name":"HTM 569","source":"blm","type":"Active","weight":0.5}},{"type":"Feature","geometry":{"type":"Point","coordinates":[-118.0713,42.001436]},"properties":{"name":"HTM 576","source":"blm","type":"Active","weight":0.5}},{"type":"Feature","geometry":{"type":"Point","coordinates":[-118.114524,42.030544]},"properties":{"name":"HTM 428","source":"blm","type":"Active","weight":0.5}},{"type":"Feature","geometry":{"type":"Point","coordinates":[-118.133977,42.02333]},"properties":{"name":"HTM 430","source":"blm","type":"Active","weight":0.5}},{"type":"Feature","geometry":{"type":"Point","coordinates":[-118.133977,42.02333]},"properties":{"name":"HTM 432","source":"blm","type":"Active","weight":0.5}},{"type":"Feature","geometry":{"type":"Point","coordinates":[-118.124274,42.023318]},"properties":{"name":"HTM 442","source":"blm","type":"Active","weight":0.5}},{"type":"Feature","geometry":{"type":"Point","coordinates":[-118.124274,42.023318]},"properties":{"name":"HTM 443","source":"blm","type":"Active","weight":0.5}},{"type":"Feature","geometry":{"type":"Point","coordinates":[-118.114562,42.023304]},"properties":{"name":"HTM 445","source":"blm","type":"Active","weight":0.5}},{"type":"Feature","geometry":{"type":"Point","coordinates":[-118.134005,42.016068]},"properties":{"name":"HTM 460","source":"blm","type":"Active","weight":0.5}},{"type":"Feature","geometry":{"type":"Point","coordinates":[-118.124306,42.016069]},"properties":{"name":"HTM 465","source":"blm","type":"Active","weight":0.5}},{"type":"Feature","geometry":{"type":"Point","coordinates":[-118.124306,42.016069]},"properties":{"name":"HTM 467","source":"blm","type":"Active","weight":0.5}},{"type":"Feature","geometry":{"type":"Point","coordinates":[-118.134039,42.008801]},"properties":{"name":"HTM 501","source":"blm","type":"Active","weight":0.5}},{"type":"Feature","geometry":{"type":"Point","coordinates":[-118.124338,42.008821]},"properties":{"name":"HTM 506","source":"blm","type":"Active","weight":0.5}},{"type":"Feature","geometry":{"type":"Point","coordinates":[-118.124338,42.008821]},"properties":{"name":"HTM 507","source":"blm","type":"Active","weight":0.5}},{"type":"Feature","geometry":{"type":"Point","coordinates":[-118.114642,42.008829]},"properties":{"name":"HTM 509","source":"blm","type":"Active","weight":0.5}},{"type":"Feature","geometry":{"type":"Point","coordinates":[-118.13406,42.001572]},"properties":{"name":"HTM 532","source":"blm","type":"Active","weight":0.5}},{"type":"Feature","geometry":{"type":"Point","coordinates":[-118.114642,42.001599]},"properties":{"name":"HTM 542","source":"blm","type":"Active","weight":0.5}},{"type":"Feature","geometry":{"type":"Point","coordinates":[-118.104936,42.001603]},"properties":{"name":"HTM 545","source":"blm","type":"Active","weight":0.5}},{"type":"Feature","geometry":{"type":"Point","coordinates":[-118.114642,42.001599]},"properties":{"name":"HTM 561","source":"blm","type":"Active","weight":0.5}},{"type":"Feature","geometry":{"type":"Point","coordinates":[-118.104936,42.001603]},"properties":{"name":"HTM 567","source":"blm","type":"Active","weight":0.5}},{"type":"Feature","geometry":{"type":"Point","coordinates":[-118.095218,42.001591]},"properties":{"name":"HTM 571","source":"blm","type":"Active","weight":0.5}},{"type":"Feature","geometry":{"type":"Point","coordinates":[-118.085488,42.001539]},"properties":{"name":"HTM 573","source":"blm","type":"Active","weight":0.5}},{"type":"Feature","geometry":{"type":"Point","coordinates":[-118.085488,42.001539]},"properties":{"name":"HTM 574","source":"blm","type":"Active","weight":0.5}},{"type":"Feature","geometry":{"type":"Point","coordinates":[-118.052096,42.001422]},"properties":{"name":"HTM 580","source":"blm","type":"Active","weight":0.5}},{"type":"Feature","geometry":{"type":"Point","coordinates":[-118.052096,42.001422]},"properties":{"name":"HTM 581","source":"blm","type":"Active","weight":0.5}},{"type":"Feature","geometry":{"type":"Point","coordinates":[-118.032604,42.001503]},"properties":{"name":"HTM 582","source":"blm","type":"Active","weight":0.5}},{"type":"Feature","geometry":{"type":"Point","coordinates":[-118.032604,42.001503]},"properties":{"name":"HTM 583","source":"blm","type":"Active","weight":0.5}},{"type":"Feature","geometry":{"type":"Point","coordinates":[-118.114562,42.023304]},"properties":{"name":"HTM 435","source":"blm","type":"Active","weight":0.5}},{"type":"Feature","geometry":{"type":"Point","coordinates":[-118.114562,42.023304]},"properties":{"name":"HTM 436","source":"blm","type":"Active","weight":0.5}},{"type":"Feature","geometry":{"type":"Point","coordinates":[-118.114562,42.023304]},"properties":{"name":"HTM 437","source":"blm","type":"Active","weight":0.5}},{"type":"Feature","geometry":{"type":"Point","coordinates":[-118.133977,42.02333]},"properties":{"name":"HTM 441","source":"blm","type":"Active","weight":0.5}},{"type":"Feature","geometry":{"type":"Point","coordinates":[-118.095218,42.001591]},"properties":{"name":"HTM 570","source":"blm","type":"Active","weight":0.5}},{"type":"Feature","geometry":{"type":"Point","coordinates":[-118.134005,42.016068]},"properties":{"name":"HTM 451","source":"blm","type":"Active","weight":0.5}},{"type":"Feature","geometry":{"type":"Point","coordinates":[-118.1146,42.016066]},"properties":{"name":"HTM 469","source":"blm","type":"Active","weight":0.5}},{"type":"Feature","geometry":{"type":"Point","coordinates":[-118.110217,41.993751]},"properties":{"name":"HTM 586","source":"blm","type":"Active","weight":0.5}},{"type":"Feature","geometry":{"type":"Point","coordinates":[-118.110217,41.993751]},"properties":{"name":"HTM 589","source":"blm","type":"Active","weight":0.5}},{"type":"Feature","geometry":{"type":"Point","coordinates":[-118.110217,41.993751]},"properties":{"name":"HTM 590","source":"blm","type":"Active","weight":0.5}},{"type":"Feature","geometry":{"type":"Point","coordinates":[-118.110217,41.993751]},"properties":{"name":"HTM 591","source":"blm","type":"Active","weight":0.5}},{"type":"Feature","geometry":{"type":"Point","coordinates":[-118.110217,41.993751]},"properties":{"name":"HTM 592","source":"blm","type":"Active","weight":0.5}},{"type":"Feature","geometry":{"type":"Point","coordinates":[-118.110217,41.993751]},"properties":{"name":"HTM 593","source":"blm","type":"Active","weight":0.5}},{"type":"Feature","geometry":{"type":"Point","coordinates":[-117.994669,41.993696]},"properties":{"name":"HTM 594","source":"blm","type":"Active","weight":0.5}},{"type":"Feature","geometry":{"type":"Point","coordinates":[-117.994669,41.993696]},"properties":{"name":"HTM 595","source":"blm","type":"Active","weight":0.5}},{"type":"Feature","geometry":{"type":"Point","coordinates":[-117.994669,41.993696]},"properties":{"name":"HTM 596","source":"blm","type":"Active","weight":0.5}},{"type":"Feature","geometry":{"type":"Point","coordinates":[-117.994669,41.993696]},"properties":{"name":"HTM 597","source":"blm","type":"Active","weight":0.5}},{"type":"Feature","geometry":{"type":"Point","coordinates":[-118.091255,41.99378]},"properties":{"name":"HTM 598","source":"blm","type":"Active","weight":0.5}},{"type":"Feature","geometry":{"type":"Point","coordinates":[-118.091255,41.99378]},"properties":{"name":"HTM 599","source":"blm","type":"Active","weight":0.5}},{"type":"Feature","geometry":{"type":"Point","coordinates":[-118.086658,41.995785]},"properties":{"name":"HTM 600","source":"blm","type":"Active","weight":0.5}},{"type":"Feature","geometry":{"type":"Point","coordinates":[-118.088309,41.994205]},"properties":{"name":"HTM 601","source":"blm","type":"Active","weight":0.5}},{"type":"Feature","geometry":{"type":"Point","coordinates":[-118.07506,41.994192]},"properties":{"name":"HTM 602","source":"blm","type":"Active","weight":0.5}},{"type":"Feature","geometry":{"type":"Point","coordinates":[-118.072323,41.993817]},"properties":{"name":"HTM 603","source":"blm","type":"Active","weight":0.5}},{"type":"Feature","geometry":{"type":"Point","coordinates":[-118.072323,41.993817]},"properties":{"name":"HTM 604","source":"blm","type":"Active","weight":0.5}},{"type":"Feature","geometry":{"type":"Point","coordinates":[-118.072323,41.993817]},"properties":{"name":"HTM 605","source":"blm","type":"Active","weight":0.5}},{"type":"Feature","geometry":{"type":"Point","coordinates":[-118.072323,41.993817]},"properties":{"name":"HTM 606","source":"blm","type":"Active","weight":0.5}},{"type":"Feature","geometry":{"type":"Point","coordinates":[-118.072323,41.993817]},"properties":{"name":"HTM 607","source":"blm","type":"Active","weight":0.5}},{"type":"Feature","geometry":{"type":"Point","coordinates":[-118.072323,41.993817]},"properties":{"name":"HTM 608","source":"blm","type":"Active","weight":0.5}},{"type":"Feature","geometry":{"type":"Point","coordinates":[-118.072323,41.993817]},"properties":{"name":"HTM 609","source":"blm","type":"Active","weight":0.5}},{"type":"Feature","geometry":{"type":"Point","coordinates":[-118.052945,41.993815]},"properties":{"name":"HTM 610","source":"blm","type":"Active","weight":0.5}},{"type":"Feature","geometry":{"type":"Point","coordinates":[-118.052945,41.993815]},"properties":{"name":"HTM 611","source":"blm","type":"Active","weight":0.5}},{"type":"Feature","geometry":{"type":"Point","coordinates":[-118.052945,41.993815]},"properties":{"name":"HTM 612","source":"blm","type":"Active","weight":0.5}},{"type":"Feature","geometry":{"type":"Point","coordinates":[-118.052945,41.993815]},"properties":{"name":"HTM 613","source":"blm","type":"Active","weight":0.5}},{"type":"Feature","geometry":{"type":"Point","coordinates":[-118.052943,41.993816]},"properties":{"name":"HTM 614","source":"blm","type":"Active","weight":0.5}},{"type":"Feature","geometry":{"type":"Point","coordinates":[-118.052943,41.993816]},"properties":{"name":"HTM 615","source":"blm","type":"Active","weight":0.5}},{"type":"Feature","geometry":{"type":"Point","coordinates":[-115.483006,43.896523]},"properties":{"name":"BR # 1","source":"blm","type":"Filed","weight":0.5}},{"type":"Feature","geometry":{"type":"Point","coordinates":[-118.110217,41.993751]},"properties":{"name":"HTM 587","source":"blm","type":"Active","weight":0.5}},{"type":"Feature","geometry":{"type":"Point","coordinates":[-118.110217,41.993751]},"properties":{"name":"HTM 588","source":"blm","type":"Active","weight":0.5}},{"type":"Feature","geometry":{"type":"Point","coordinates":[-118.052943,41.993816]},"properties":{"name":"HTM 616","source":"blm","type":"Active","weight":0.5}},{"type":"Feature","geometry":{"type":"Point","coordinates":[-118.03348,41.993837]},"properties":{"name":"HTM 618","source":"blm","type":"Active","weight":0.5}},{"type":"Feature","geometry":{"type":"Point","coordinates":[-118.03348,41.993837]},"properties":{"name":"HTM 619","source":"blm","type":"Active","weight":0.5}},{"type":"Feature","geometry":{"type":"Point","coordinates":[-118.03348,41.993837]},"properties":{"name":"HTM 620","source":"blm","type":"Active","weight":0.5}},{"type":"Feature","geometry":{"type":"Point","coordinates":[-118.03348,41.993837]},"properties":{"name":"HTM 621","source":"blm","type":"Active","weight":0.5}},{"type":"Feature","geometry":{"type":"Point","coordinates":[-118.110217,41.993751]},"properties":{"name":"HTM 622","source":"blm","type":"Active","weight":0.5}},{"type":"Feature","geometry":{"type":"Point","coordinates":[-118.110217,41.993751]},"properties":{"name":"HTM 623","source":"blm","type":"Active","weight":0.5}},{"type":"Feature","geometry":{"type":"Point","coordinates":[-118.110217,41.993751]},"properties":{"name":"HTM 625","source":"blm","type":"Active","weight":0.5}},{"type":"Feature","geometry":{"type":"Point","coordinates":[-118.110217,41.993751]},"properties":{"name":"HTM 626","source":"blm","type":"Active","weight":0.5}},{"type":"Feature","geometry":{"type":"Point","coordinates":[-118.110217,41.993751]},"properties":{"name":"HTM 627","source":"blm","type":"Active","weight":0.5}},{"type":"Feature","geometry":{"type":"Point","coordinates":[-118.110217,41.993751]},"properties":{"name":"HTM 628","source":"blm","type":"Active","weight":0.5}},{"type":"Feature","geometry":{"type":"Point","coordinates":[-118.110217,41.993751]},"properties":{"name":"HTM 629","source":"blm","type":"Active","weight":0.5}},{"type":"Feature","geometry":{"type":"Point","coordinates":[-118.091268,41.993775]},"properties":{"name":"HTM 630","source":"blm","type":"Active","weight":0.5}},{"type":"Feature","geometry":{"type":"Point","coordinates":[-118.091268,41.993775]},"properties":{"name":"HTM 631","source":"blm","type":"Active","weight":0.5}},{"type":"Feature","geometry":{"type":"Point","coordinates":[-118.091255,41.99378]},"properties":{"name":"HTM 634","source":"blm","type":"Active","weight":0.5}},{"type":"Feature","geometry":{"type":"Point","coordinates":[-118.091255,41.99378]},"properties":{"name":"HTM 635","source":"blm","type":"Active","weight":0.5}},{"type":"Feature","geometry":{"type":"Point","coordinates":[-118.091255,41.99378]},"properties":{"name":"HTM 636","source":"blm","type":"Active","weight":0.5}},{"type":"Feature","geometry":{"type":"Point","coordinates":[-118.088309,41.994205]},"properties":{"name":"HTM 637","source":"blm","type":"Active","weight":0.5}},{"type":"Feature","geometry":{"type":"Point","coordinates":[-118.072323,41.993817]},"properties":{"name":"HTM 638","source":"blm","type":"Active","weight":0.5}},{"type":"Feature","geometry":{"type":"Point","coordinates":[-118.072323,41.993817]},"properties":{"name":"HTM 639","source":"blm","type":"Active","weight":0.5}},{"type":"Feature","geometry":{"type":"Point","coordinates":[-118.072323,41.993817]},"properties":{"name":"HTM 640","source":"blm","type":"Active","weight":0.5}},{"type":"Feature","geometry":{"type":"Point","coordinates":[-118.072323,41.993817]},"properties":{"name":"HTM 641","source":"blm","type":"Active","weight":0.5}},{"type":"Feature","geometry":{"type":"Point","coordinates":[-118.072323,41.993817]},"properties":{"name":"HTM 642","source":"blm","type":"Active","weight":0.5}},{"type":"Feature","geometry":{"type":"Point","coordinates":[-118.072323,41.993817]},"properties":{"name":"HTM 643","source":"blm","type":"Active","weight":0.5}},{"type":"Feature","geometry":{"type":"Point","coordinates":[-118.072323,41.993817]},"properties":{"name":"HTM 644","source":"blm","type":"Active","weight":0.5}},{"type":"Feature","geometry":{"type":"Point","coordinates":[-118.072323,41.993817]},"properties":{"name":"HTM 645","source":"blm","type":"Active","weight":0.5}},{"type":"Feature","geometry":{"type":"Point","coordinates":[-118.052945,41.993815]},"properties":{"name":"HTM 646","source":"blm","type":"Active","weight":0.5}},{"type":"Feature","geometry":{"type":"Point","coordinates":[-118.052945,41.993815]},"properties":{"name":"HTM 647","source":"blm","type":"Active","weight":0.5}},{"type":"Feature","geometry":{"type":"Point","coordinates":[-118.052945,41.993815]},"properties":{"name":"HTM 648","source":"blm","type":"Active","weight":0.5}},{"type":"Feature","geometry":{"type":"Point","coordinates":[-118.052943,41.993816]},"properties":{"name":"HTM 650","source":"blm","type":"Active","weight":0.5}},{"type":"Feature","geometry":{"type":"Point","coordinates":[-118.052943,41.993816]},"properties":{"name":"HTM 651","source":"blm","type":"Active","weight":0.5}},{"type":"Feature","geometry":{"type":"Point","coordinates":[-118.052943,41.993816]},"properties":{"name":"HTM 652","source":"blm","type":"Active","weight":0.5}},{"type":"Feature","geometry":{"type":"Point","coordinates":[-118.052943,41.993816]},"properties":{"name":"HTM 653","source":"blm","type":"Active","weight":0.5}},{"type":"Feature","geometry":{"type":"Point","coordinates":[-118.03348,41.993837]},"properties":{"name":"HTM 655","source":"blm","type":"Active","weight":0.5}},{"type":"Feature","geometry":{"type":"Point","coordinates":[-118.091378,41.982597]},"properties":{"name":"HTM 657","source":"blm","type":"Active","weight":0.5}},{"type":"Feature","geometry":{"type":"Point","coordinates":[-118.091378,41.982597]},"properties":{"name":"HTM 658","source":"blm","type":"Active","weight":0.5}},{"type":"Feature","geometry":{"type":"Point","coordinates":[-118.07237,41.98259]},"properties":{"name":"HTM 660","source":"blm","type":"Active","weight":0.5}},{"type":"Feature","geometry":{"type":"Point","coordinates":[-118.07237,41.98259]},"properties":{"name":"HTM 662","source":"blm","type":"Active","weight":0.5}},{"type":"Feature","geometry":{"type":"Point","coordinates":[-118.07237,41.98259]},"properties":{"name":"HTM 663","source":"blm","type":"Active","weight":0.5}},{"type":"Feature","geometry":{"type":"Point","coordinates":[-118.07237,41.98259]},"properties":{"name":"HTM 664","source":"blm","type":"Active","weight":0.5}},{"type":"Feature","geometry":{"type":"Point","coordinates":[-118.07237,41.98259]},"properties":{"name":"HTM 666","source":"blm","type":"Active","weight":0.5}},{"type":"Feature","geometry":{"type":"Point","coordinates":[-118.053061,41.982553]},"properties":{"name":"HTM 667","source":"blm","type":"Active","weight":0.5}},{"type":"Feature","geometry":{"type":"Point","coordinates":[-118.053061,41.982553]},"properties":{"name":"HTM 668","source":"blm","type":"Active","weight":0.5}},{"type":"Feature","geometry":{"type":"Point","coordinates":[-118.053061,41.982553]},"properties":{"name":"HTM 669","source":"blm","type":"Active","weight":0.5}},{"type":"Feature","geometry":{"type":"Point","coordinates":[-118.053061,41.982553]},"properties":{"name":"HTM 670","source":"blm","type":"Active","weight":0.5}},{"type":"Feature","geometry":{"type":"Point","coordinates":[-118.053061,41.982553]},"properties":{"name":"HTM 671","source":"blm","type":"Active","weight":0.5}},{"type":"Feature","geometry":{"type":"Point","coordinates":[-118.053061,41.982553]},"properties":{"name":"HTM 672","source":"blm","type":"Active","weight":0.5}},{"type":"Feature","geometry":{"type":"Point","coordinates":[-118.091329,41.910131]},"properties":{"name":"HTM 674","source":"blm","type":"Active","weight":0.5}},{"type":"Feature","geometry":{"type":"Point","coordinates":[-118.072232,41.910102]},"properties":{"name":"HTM 675","source":"blm","type":"Active","weight":0.5}},{"type":"Feature","geometry":{"type":"Point","coordinates":[-118.072232,41.910102]},"properties":{"name":"HTM 676","source":"blm","type":"Active","weight":0.5}},{"type":"Feature","geometry":{"type":"Point","coordinates":[-118.072232,41.910102]},"properties":{"name":"HTM 677","source":"blm","type":"Active","weight":0.5}},{"type":"Feature","geometry":{"type":"Point","coordinates":[-118.072232,41.910102]},"properties":{"name":"HTM 678","source":"blm","type":"Active","weight":0.5}},{"type":"Feature","geometry":{"type":"Point","coordinates":[-118.05293,41.910082]},"properties":{"name":"HTM 679","source":"blm","type":"Active","weight":0.5}},{"type":"Feature","geometry":{"type":"Point","coordinates":[-118.05293,41.910082]},"properties":{"name":"HTM 680","source":"blm","type":"Active","weight":0.5}},{"type":"Feature","geometry":{"type":"Point","coordinates":[-118.05293,41.910082]},"properties":{"name":"HTM 681","source":"blm","type":"Active","weight":0.5}},{"type":"Feature","geometry":{"type":"Point","coordinates":[-118.05293,41.910082]},"properties":{"name":"HTM 682","source":"blm","type":"Active","weight":0.5}},{"type":"Feature","geometry":{"type":"Point","coordinates":[-118.052943,41.993816]},"properties":{"name":"HTM 617","source":"blm","type":"Active","weight":0.5}},{"type":"Feature","geometry":{"type":"Point","coordinates":[-118.110217,41.993751]},"properties":{"name":"HTM 624","source":"blm","type":"Active","weight":0.5}},{"type":"Feature","geometry":{"type":"Point","coordinates":[-118.091268,41.993775]},"properties":{"name":"HTM 623","source":"blm","type":"Active","weight":0.5}},{"type":"Feature","geometry":{"type":"Point","coordinates":[-118.091268,41.993775]},"properties":{"name":"HTM 633","source":"blm","type":"Active","weight":0.5}},{"type":"Feature","geometry":{"type":"Point","coordinates":[-118.052945,41.993815]},"properties":{"name":"HTM 649","source":"blm","type":"Active","weight":0.5}},{"type":"Feature","geometry":{"type":"Point","coordinates":[-118.03348,41.993837]},"properties":{"name":"HTM 654","source":"blm","type":"Active","weight":0.5}},{"type":"Feature","geometry":{"type":"Point","coordinates":[-118.03348,41.993837]},"properties":{"name":"HTM 656","source":"blm","type":"Active","weight":0.5}},{"type":"Feature","geometry":{"type":"Point","coordinates":[-118.07237,41.98259]},"properties":{"name":"HTM 661","source":"blm","type":"Active","weight":0.5}},{"type":"Feature","geometry":{"type":"Point","coordinates":[-118.07237,41.98259]},"properties":{"name":"HTM 665","source":"blm","type":"Active","weight":0.5}},{"type":"Feature","geometry":{"type":"Point","coordinates":[-118.053061,41.982553]},"properties":{"name":"HTM 673","source":"blm","type":"Active","weight":0.5}},{"type":"Feature","geometry":{"type":"Point","coordinates":[-115.873343,44.275487]},"properties":{"name":"Hidden Bends","source":"blm","type":"Filed","weight":0.5}},{"type":"Feature","geometry":{"type":"Point","coordinates":[-118.07237,41.98259]},"properties":{"name":"HTM 659","source":"blm","type":"Active","weight":0.5}},{"type":"Feature","geometry":{"type":"Point","coordinates":[-114.020054,42.525847]},"properties":{"name":"Bonneville","source":"blm","type":"Filed","weight":0.5}},{"type":"Feature","geometry":{"type":"Point","coordinates":[-112.983224,45.177197]},"properties":{"name":"Hangman's Gold #12","source":"blm","type":"Active","weight":0.5}},{"type":"Feature","geometry":{"type":"Point","coordinates":[-112.983214,45.184429]},"properties":{"name":"Hangman's Gold #14","source":"blm","type":"Active","weight":0.5}},{"type":"Feature","geometry":{"type":"Point","coordinates":[-113.621625,46.618012]},"properties":{"name":"Alps Placer","source":"blm","type":"Active","weight":0.5}},{"type":"Feature","geometry":{"type":"Point","coordinates":[-114.326589,45.564786]},"properties":{"name":"Woods Creek Placer","source":"blm","type":"Active","weight":0.5}},{"type":"Feature","geometry":{"type":"Point","coordinates":[-112.65086,46.215147]},"properties":{"name":"Austin Bradley #3","source":"blm","type":"Active","weight":0.5}},{"type":"Feature","geometry":{"type":"Point","coordinates":[-112.918864,45.299023]},"properties":{"name":"Argentine Placer","source":"blm","type":"Active","weight":0.5}},{"type":"Feature","geometry":{"type":"Point","coordinates":[-115.789498,43.818385]},"properties":{"name":"ACE N HOLE III","source":"blm","type":"Active","weight":0.5}},{"type":"Feature","geometry":{"type":"Point","coordinates":[-123.5537,42.557165]},"properties":{"name":"Yeti Yak","source":"blm","type":"Active","weight":0.5}},{"type":"Feature","geometry":{"type":"Point","coordinates":[-123.29511,42.503901]},"properties":{"name":"Golden Handshake #1","source":"blm","type":"Active","weight":0.5}},{"type":"Feature","geometry":{"type":"Point","coordinates":[-116.022872,45.499825]},"properties":{"name":"Summit 7","source":"blm","type":"Filed","weight":0.5}},{"type":"Feature","geometry":{"type":"Point","coordinates":[-115.726851,45.322839]},"properties":{"name":"Lower Tailings","source":"blm","type":"Filed","weight":0.5}},{"type":"Feature","geometry":{"type":"Point","coordinates":[-115.865118,45.261303]},"properties":{"name":"River of Gold 5","source":"blm","type":"Filed","weight":0.5}},{"type":"Feature","geometry":{"type":"Point","coordinates":[-115.731992,45.330076]},"properties":{"name":"NO NAME #2","source":"blm","type":"Filed","weight":0.5}},{"type":"Feature","geometry":{"type":"Point","coordinates":[-123.455126,42.075064]},"properties":{"name":"Slice of Pie","source":"blm","type":"Active","weight":0.5}},{"type":"Feature","geometry":{"type":"Point","coordinates":[-112.403696,46.449214]},"properties":{"name":"Ontario Gold","source":"blm","type":"Active","weight":0.5}},{"type":"Feature","geometry":{"type":"Point","coordinates":[-112.447053,46.645193]},"properties":{"name":"The Ophir Placer","source":"blm","type":"Active","weight":0.5}},{"type":"Feature","geometry":{"type":"Point","coordinates":[-115.964417,43.799289]},"properties":{"name":"George's Jackpot","source":"blm","type":"Active","weight":0.5}},{"type":"Feature","geometry":{"type":"Point","coordinates":[-116.314442,46.989261]},"properties":{"name":"DEEP POCKETS","source":"blm","type":"Filed","weight":0.5}},{"type":"Feature","geometry":{"type":"Point","coordinates":[-123.690676,42.55709]},"properties":{"name":"Seventy Pound Placer","source":"blm","type":"Active","weight":0.5}},{"type":"Feature","geometry":{"type":"Point","coordinates":[-120.677011,47.253759]},"properties":{"name":"Gold Fault","source":"blm","type":"Active","weight":0.5}},{"type":"Feature","geometry":{"type":"Point","coordinates":[-120.72123,48.72333]},"properties":{"name":"Two Forks","source":"blm","type":"Active","weight":0.5}},{"type":"Feature","geometry":{"type":"Point","coordinates":[-115.643445,43.819944]},"properties":{"name":"NUGGET JUNCTION 2","source":"blm","type":"Filed","weight":0.5}},{"type":"Feature","geometry":{"type":"Point","coordinates":[-115.86256,45.263111]},"properties":{"name":"RIVER OF GOLD #6","source":"blm","type":"Filed","weight":0.5}},{"type":"Feature","geometry":{"type":"Point","coordinates":[-118.509597,44.651471]},"properties":{"name":"Rockwater 1","source":"blm","type":"Active","weight":0.5}},{"type":"Feature","geometry":{"type":"Point","coordinates":[-111.749777,46.241302]},"properties":{"name":"M&M Placer","source":"blm","type":"Active","weight":0.5}},{"type":"Feature","geometry":{"type":"Point","coordinates":[-123.627157,42.582644]},"properties":{"name":"Hard Luck","source":"blm","type":"Active","weight":0.5}},{"type":"Feature","geometry":{"type":"Point","coordinates":[-123.627129,42.589959]},"properties":{"name":"Rocky","source":"blm","type":"Active","weight":0.5}},{"type":"Feature","geometry":{"type":"Point","coordinates":[-123.646421,42.502383]},"properties":{"name":"Taylor 28 A","source":"blm","type":"Active","weight":0.5}},{"type":"Feature","geometry":{"type":"Point","coordinates":[-123.651306,42.498761]},"properties":{"name":"Taylor 28 B","source":"blm","type":"Active","weight":0.5}},{"type":"Feature","geometry":{"type":"Point","coordinates":[-123.08712,42.152676]},"properties":{"name":"Gold Run","source":"blm","type":"Active","weight":0.5}},{"type":"Feature","geometry":{"type":"Point","coordinates":[-123.097925,42.109161]},"properties":{"name":"China Diggings","source":"blm","type":"Filed","weight":0.5}},{"type":"Feature","geometry":{"type":"Point","coordinates":[-123.08712,42.152676]},"properties":{"name":"Hidden Treasure","source":"blm","type":"Active","weight":0.5}},{"type":"Feature","geometry":{"type":"Point","coordinates":[-122.722377,43.579439]},"properties":{"name":"HANAMII II","source":"blm","type":"Active","weight":0.5}},{"type":"Feature","geometry":{"type":"Point","coordinates":[-115.692609,43.678757]},"properties":{"name":"HAYFIELD","source":"blm","type":"Filed","weight":0.5}},{"type":"Feature","geometry":{"type":"Point","coordinates":[-115.682607,43.685954]},"properties":{"name":"BROWN'S CREEK","source":"blm","type":"Filed","weight":0.5}},{"type":"Feature","geometry":{"type":"Point","coordinates":[-123.318319,42.031271]},"properties":{"name":"Temptation","source":"blm","type":"Active","weight":0.5}},{"type":"Feature","geometry":{"type":"Point","coordinates":[-123.196159,42.116641]},"properties":{"name":"quartz gulch221","source":"blm","type":"Filed","weight":0.5}},{"type":"Feature","geometry":{"type":"Point","coordinates":[-123.196161,42.109329]},"properties":{"name":"Bedrock & Brush 2021","source":"blm","type":"Filed","weight":0.5}},{"type":"Feature","geometry":{"type":"Point","coordinates":[-123.196161,42.109329]},"properties":{"name":"Bedrock & Brush Two 21","source":"blm","type":"Filed","weight":0.5}},{"type":"Feature","geometry":{"type":"Point","coordinates":[-123.196161,42.109329]},"properties":{"name":"Bedrock & Brush 3 21","source":"blm","type":"Filed","weight":0.5}},{"type":"Feature","geometry":{"type":"Point","coordinates":[-115.338066,47.291697]},"properties":{"name":"Golden Paycheck","source":"blm","type":"Active","weight":0.5}},{"type":"Feature","geometry":{"type":"Point","coordinates":[-115.338066,47.291697]},"properties":{"name":"Three Fingers","source":"blm","type":"Active","weight":0.5}},{"type":"Feature","geometry":{"type":"Point","coordinates":[-112.05549,45.476863]},"properties":{"name":"Little Alamo","source":"blm","type":"Active","weight":0.5}},{"type":"Feature","geometry":{"type":"Point","coordinates":[-120.646509,47.278287]},"properties":{"name":"Crazy Cat","source":"blm","type":"Active","weight":0.5}},{"type":"Feature","geometry":{"type":"Point","coordinates":[-120.64658,47.26383]},"properties":{"name":"Caterwaul","source":"blm","type":"Active","weight":0.5}},{"type":"Feature","geometry":{"type":"Point","coordinates":[-120.651878,47.267427]},"properties":{"name":"Cougar Madness","source":"blm","type":"Active","weight":0.5}},{"type":"Feature","geometry":{"type":"Point","coordinates":[-120.672083,47.250959]},"properties":{"name":"Liberty Bell","source":"blm","type":"Active","weight":0.5}},{"type":"Feature","geometry":{"type":"Point","coordinates":[-120.646538,47.271066]},"properties":{"name":"Cougar Gold","source":"blm","type":"Active","weight":0.5}},{"type":"Feature","geometry":{"type":"Point","coordinates":[-123.670609,42.235313]},"properties":{"name":"Illinois #2","source":"blm","type":"Active","weight":0.5}},{"type":"Feature","geometry":{"type":"Point","coordinates":[-123.67517,42.231677]},"properties":{"name":"Illinois #3","source":"blm","type":"Active","weight":0.5}},{"type":"Feature","geometry":{"type":"Point","coordinates":[-120.646538,47.271066]},"properties":{"name":"Kitty Paradise","source":"blm","type":"Active","weight":0.5}},{"type":"Feature","geometry":{"type":"Point","coordinates":[-118.623541,44.67537]},"properties":{"name":"Galaxy Gold","source":"blm","type":"Active","weight":0.5}},{"type":"Feature","geometry":{"type":"Point","coordinates":[-115.926465,43.947945]},"properties":{"name":"EGAD","source":"blm","type":"Filed","weight":0.5}},{"type":"Feature","geometry":{"type":"Point","coordinates":[-122.864688,42.134674]},"properties":{"name":"EVERGLADE","source":"blm","type":"Active","weight":0.5}},{"type":"Feature","geometry":{"type":"Point","coordinates":[-115.268665,43.680696]},"properties":{"name":"LINDA LISA","source":"blm","type":"Filed","weight":0.5}},{"type":"Feature","geometry":{"type":"Point","coordinates":[-115.276724,43.670622]},"properties":{"name":"NUPA N2","source":"blm","type":"Filed","weight":0.5}},{"type":"Feature","geometry":{"type":"Point","coordinates":[-113.015567,45.150183]},"properties":{"name":"Grub Stake #17","source":"blm","type":"Active","weight":0.5}},{"type":"Feature","geometry":{"type":"Point","coordinates":[-112.081314,45.51673]},"properties":{"name":"Forty Rod","source":"blm","type":"Active","weight":0.5}},{"type":"Feature","geometry":{"type":"Point","coordinates":[-116.049026,45.51052]},"properties":{"name":"RARE EARTH 2","source":"blm","type":"Filed","weight":0.5}},{"type":"Feature","geometry":{"type":"Point","coordinates":[-115.992343,45.522146]},"properties":{"name":"EAST FORK 3","source":"blm","type":"Filed","weight":0.5}},{"type":"Feature","geometry":{"type":"Point","coordinates":[-121.70057,47.972224]},"properties":{"name":"Yellow Moon","source":"blm","type":"Active","weight":0.5}},{"type":"Feature","geometry":{"type":"Point","coordinates":[-115.692609,43.678757]},"properties":{"name":"HIGH CHANNEL","source":"blm","type":"Filed","weight":0.5}},{"type":"Feature","geometry":{"type":"Point","coordinates":[-123.444862,42.846643]},"properties":{"name":"Golden Middle2","source":"blm","type":"Under Review","weight":0.5}},{"type":"Feature","geometry":{"type":"Point","coordinates":[-121.299963,47.835982]},"properties":{"name":"Johnny","source":"blm","type":"Active","weight":0.5}},{"type":"Feature","geometry":{"type":"Point","coordinates":[-121.299952,47.832311]},"properties":{"name":"Zeke","source":"blm","type":"Active","weight":0.5}},{"type":"Feature","geometry":{"type":"Point","coordinates":[-112.412395,45.561161]},"properties":{"name":"The Rochester Placer","source":"blm","type":"Active","weight":0.5}},{"type":"Feature","geometry":{"type":"Point","coordinates":[-115.147913,43.779894]},"properties":{"name":"IT'S ALLGOOD","source":"blm","type":"Filed","weight":0.5}},{"type":"Feature","geometry":{"type":"Point","coordinates":[-112.05549,45.476863]},"properties":{"name":"Whiskey Gulch","source":"blm","type":"Active","weight":0.5}},{"type":"Feature","geometry":{"type":"Point","coordinates":[-112.107056,45.512948]},"properties":{"name":"DULL KNIFE","source":"blm","type":"Active","weight":0.5}},{"type":"Feature","geometry":{"type":"Point","coordinates":[-113.212094,46.258855]},"properties":{"name":"Flint Creek Placer","source":"blm","type":"Active","weight":0.5}},{"type":"Feature","geometry":{"type":"Point","coordinates":[-115.787055,43.918474]},"properties":{"name":"LUCKIER FIND","source":"blm","type":"Filed","weight":0.5}},{"type":"Feature","geometry":{"type":"Point","coordinates":[-118.260465,44.755981]},"properties":{"name":"Double Eagle","source":"blm","type":"Active","weight":0.5}},{"type":"Feature","geometry":{"type":"Point","coordinates":[-118.260465,44.755981]},"properties":{"name":"Buckey #1","source":"blm","type":"Active","weight":0.5}},{"type":"Feature","geometry":{"type":"Point","coordinates":[-118.270414,44.748891]},"properties":{"name":"Spad","source":"blm","type":"Active","weight":0.5}},{"type":"Feature","geometry":{"type":"Point","coordinates":[-118.270414,44.748891]},"properties":{"name":"Four Bit","source":"blm","type":"Active","weight":0.5}},{"type":"Feature","geometry":{"type":"Point","coordinates":[-118.26043,44.763083]},"properties":{"name":"Quarter Eagle","source":"blm","type":"Active","weight":0.5}},{"type":"Feature","geometry":{"type":"Point","coordinates":[-118.270414,44.748891]},"properties":{"name":"Joy's Placer","source":"blm","type":"Active","weight":0.5}},{"type":"Feature","geometry":{"type":"Point","coordinates":[-115.739245,44.010451]},"properties":{"name":"YELLOW ORE","source":"blm","type":"Filed","weight":0.5}},{"type":"Feature","geometry":{"type":"Point","coordinates":[-115.739245,44.010451]},"properties":{"name":"YELLOW ORE 2","source":"blm","type":"Filed","weight":0.5}},{"type":"Feature","geometry":{"type":"Point","coordinates":[-115.845715,43.890373]},"properties":{"name":"GOLD STAG","source":"blm","type":"Filed","weight":0.5}},{"type":"Feature","geometry":{"type":"Point","coordinates":[-115.689903,43.853752]},"properties":{"name":"N. RABBIT DEPOSITS","source":"blm","type":"Filed","weight":0.5}},{"type":"Feature","geometry":{"type":"Point","coordinates":[-116.001771,45.841855]},"properties":{"name":"DREDGER PLACER","source":"blm","type":"Filed","weight":0.5}},{"type":"Feature","geometry":{"type":"Point","coordinates":[-115.856639,43.819707]},"properties":{"name":"DREDGE ROCK","source":"blm","type":"Filed","weight":0.5}},{"type":"Feature","geometry":{"type":"Point","coordinates":[-115.916377,47.583275]},"properties":{"name":"SHOCOMA 2","source":"blm","type":"Filed","weight":0.5}},{"type":"Feature","geometry":{"type":"Point","coordinates":[-115.927071,47.583414]},"properties":{"name":"SHOCOMA 3","source":"blm","type":"Active","weight":0.5}},{"type":"Feature","geometry":{"type":"Point","coordinates":[-115.997472,45.51129]},"properties":{"name":"MEADOW 1","source":"blm","type":"Filed","weight":0.5}},{"type":"Feature","geometry":{"type":"Point","coordinates":[-111.115017,44.008665]},"properties":{"name":"CUSTER GOLD","source":"blm","type":"Filed","weight":0.5}},{"type":"Feature","geometry":{"type":"Point","coordinates":[-115.98874,42.782368]},"properties":{"name":"OLD JACK NO. 7","source":"blm","type":"Filed","weight":0.5}},{"type":"Feature","geometry":{"type":"Point","coordinates":[-111.490864,46.722364]},"properties":{"name":"The Nary Time Gulch Placer","source":"blm","type":"Active","weight":0.5}},{"type":"Feature","geometry":{"type":"Point","coordinates":[-117.70568,44.526316]},"properties":{"name":"Burnt Out #4","source":"blm","type":"Active","weight":0.5}},{"type":"Feature","geometry":{"type":"Point","coordinates":[-123.342842,42.568037]},"properties":{"name":"Shock and Awe Placer","source":"blm","type":"Active","weight":0.5}},{"type":"Feature","geometry":{"type":"Point","coordinates":[-117.585132,44.553151]},"properties":{"name":"Susan's Gold 2","source":"blm","type":"Active","weight":0.5}},{"type":"Feature","geometry":{"type":"Point","coordinates":[-116.755041,43.002146]},"properties":{"name":"MONARCH 4","source":"blm","type":"Filed","weight":0.5}},{"type":"Feature","geometry":{"type":"Point","coordinates":[-116.758344,43.002936]},"properties":{"name":"MONARCH 1","source":"blm","type":"Filed","weight":0.5}},{"type":"Feature","geometry":{"type":"Point","coordinates":[-116.752957,43.002915]},"properties":{"name":"MONARCH 2","source":"blm","type":"Filed","weight":0.5}},{"type":"Feature","geometry":{"type":"Point","coordinates":[-116.74808,43.002885]},"properties":{"name":"MONARCH 3","source":"blm","type":"Filed","weight":0.5}},{"type":"Feature","geometry":{"type":"Point","coordinates":[-115.473178,43.896521]},"properties":{"name":"NFBR#2A","source":"blm","type":"Active","weight":0.5}},{"type":"Feature","geometry":{"type":"Point","coordinates":[-115.473178,43.896521]},"properties":{"name":"NFBR#2B","source":"blm","type":"Active","weight":0.5}},{"type":"Feature","geometry":{"type":"Point","coordinates":[-111.26941,43.11855]},"properties":{"name":"THE MONEY PIT","source":"blm","type":"Filed","weight":0.5}},{"type":"Feature","geometry":{"type":"Point","coordinates":[-114.712424,44.438522]},"properties":{"name":"PAYOFF #2","source":"blm","type":"Filed","weight":0.5}},{"type":"Feature","geometry":{"type":"Point","coordinates":[-115.283723,43.810899]},"properties":{"name":"OMEGA","source":"blm","type":"Active","weight":0.5}},{"type":"Feature","geometry":{"type":"Point","coordinates":[-115.283723,43.810899]},"properties":{"name":"ALPHA","source":"blm","type":"Active","weight":0.5}},{"type":"Feature","geometry":{"type":"Point","coordinates":[-115.293728,43.828993]},"properties":{"name":"KING OF SPADES","source":"blm","type":"Filed","weight":0.5}},{"type":"Feature","geometry":{"type":"Point","coordinates":[-115.192374,43.799051]},"properties":{"name":"CANE","source":"blm","type":"Active","weight":0.5}},{"type":"Feature","geometry":{"type":"Point","coordinates":[-115.606613,43.997372]},"properties":{"name":"BEAVER GEM","source":"blm","type":"Active","weight":0.5}},{"type":"Feature","geometry":{"type":"Point","coordinates":[-115.747595,43.799087]},"properties":{"name":"NUGGET TRAP","source":"blm","type":"Active","weight":0.5}},{"type":"Feature","geometry":{"type":"Point","coordinates":[-115.928416,44.04404]},"properties":{"name":"WASH NUGGETS","source":"blm","type":"Active","weight":0.5}},{"type":"Feature","geometry":{"type":"Point","coordinates":[-115.485469,43.898321]},"properties":{"name":"BR # #","source":"blm","type":"Active","weight":0.5}},{"type":"Feature","geometry":{"type":"Point","coordinates":[-113.044065,45.289595]},"properties":{"name":"Stay Away Joe","source":"blm","type":"Active","weight":0.5}},{"type":"Feature","geometry":{"type":"Point","coordinates":[-115.151627,47.258524]},"properties":{"name":"Whiskey Kate's Lost Gold","source":"blm","type":"Active","weight":0.5}},{"type":"Feature","geometry":{"type":"Point","coordinates":[-112.040047,45.487765]},"properties":{"name":"Texas Jack","source":"blm","type":"Active","weight":0.5}},{"type":"Feature","geometry":{"type":"Point","coordinates":[-115.831145,43.829354]},"properties":{"name":"IDAHO CITY","source":"blm","type":"Active","weight":0.5}},{"type":"Feature","geometry":{"type":"Point","coordinates":[-115.966015,43.683408]},"properties":{"name":"GOLD BAR","source":"blm","type":"Active","weight":0.5}},{"type":"Feature","geometry":{"type":"Point","coordinates":[-115.27106,43.682394]},"properties":{"name":"RUSTY","source":"blm","type":"Filed","weight":0.5}},{"type":"Feature","geometry":{"type":"Point","coordinates":[-115.787024,43.925545]},"properties":{"name":"ELK FIND 2","source":"blm","type":"Filed","weight":0.5}},{"type":"Feature","geometry":{"type":"Point","coordinates":[-115.787024,43.925545]},"properties":{"name":"LORI LYNN","source":"blm","type":"Filed","weight":0.5}},{"type":"Feature","geometry":{"type":"Point","coordinates":[-117.491526,44.462442]},"properties":{"name":"RYE-1","source":"blm","type":"Active","weight":0.5}},{"type":"Feature","geometry":{"type":"Point","coordinates":[-117.491526,44.462442]},"properties":{"name":"RYE-2","source":"blm","type":"Active","weight":0.5}},{"type":"Feature","geometry":{"type":"Point","coordinates":[-117.471358,44.462546]},"properties":{"name":"RYE-3","source":"blm","type":"Active","weight":0.5}},{"type":"Feature","geometry":{"type":"Point","coordinates":[-117.471358,44.462546]},"properties":{"name":"RYE-4","source":"blm","type":"Active","weight":0.5}},{"type":"Feature","geometry":{"type":"Point","coordinates":[-117.48144,44.462504]},"properties":{"name":"RYE-5","source":"blm","type":"Active","weight":0.5}},{"type":"Feature","geometry":{"type":"Point","coordinates":[-117.48144,44.462504]},"properties":{"name":"RYE-6","source":"blm","type":"Active","weight":0.5}},{"type":"Feature","geometry":{"type":"Point","coordinates":[-117.481484,44.455355]},"properties":{"name":"RYE-7","source":"blm","type":"Active","weight":0.5}},{"type":"Feature","geometry":{"type":"Point","coordinates":[-117.48144,44.462504]},"properties":{"name":"RYE-8","source":"blm","type":"Active","weight":0.5}},{"type":"Feature","geometry":{"type":"Point","coordinates":[-117.481484,44.455355]},"properties":{"name":"RYE-9","source":"blm","type":"Active","weight":0.5}},{"type":"Feature","geometry":{"type":"Point","coordinates":[-117.481484,44.455355]},"properties":{"name":"RYE-10","source":"blm","type":"Active","weight":0.5}},{"type":"Feature","geometry":{"type":"Point","coordinates":[-115.900622,48.627137]},"properties":{"name":"Devil Dog Canyon","source":"blm","type":"Active","weight":0.5}},{"type":"Feature","geometry":{"type":"Point","coordinates":[-115.904822,45.38095]},"properties":{"name":"OLD TUNNEL","source":"blm","type":"Filed","weight":0.5}},{"type":"Feature","geometry":{"type":"Point","coordinates":[-111.995998,44.510183]},"properties":{"name":"SHI' TY' MAGNIFIEKA 4","source":"blm","type":"Filed","weight":0.5}},{"type":"Feature","geometry":{"type":"Point","coordinates":[-111.995994,44.506564]},"properties":{"name":"SHI' TY' MAGNIFIEKA 5","source":"blm","type":"Filed","weight":0.5}},{"type":"Feature","geometry":{"type":"Point","coordinates":[-123.548571,42.429062]},"properties":{"name":"Limpy's Legend","source":"blm","type":"Active","weight":0.5}},{"type":"Feature","geometry":{"type":"Point","coordinates":[-115.453476,43.932416]},"properties":{"name":"BR # 4","source":"blm","type":"Filed","weight":0.5}},{"type":"Feature","geometry":{"type":"Point","coordinates":[-118.834166,44.775478]},"properties":{"name":"GOLD BC # 121","source":"blm","type":"Active","weight":0.5}},{"type":"Feature","geometry":{"type":"Point","coordinates":[-115.953968,43.955294]},"properties":{"name":"CALI KARATS","source":"blm","type":"Filed","weight":0.5}},{"type":"Feature","geometry":{"type":"Point","coordinates":[-120.371301,44.410259]},"properties":{"name":"Coopah Jr.","source":"blm","type":"Active","weight":0.5}},{"type":"Feature","geometry":{"type":"Point","coordinates":[-114.606883,46.671235]},"properties":{"name":"Cold Gold","source":"blm","type":"Active","weight":0.5}},{"type":"Feature","geometry":{"type":"Point","coordinates":[-112.081314,45.51673]},"properties":{"name":"Buttermilk Jim","source":"blm","type":"Active","weight":0.5}},{"type":"Feature","geometry":{"type":"Point","coordinates":[-113.038903,45.285985]},"properties":{"name":"Taos Lightning","source":"blm","type":"Active","weight":0.5}},{"type":"Feature","geometry":{"type":"Point","coordinates":[-111.508092,46.613813]},"properties":{"name":"Shotgun Sally","source":"blm","type":"Active","weight":0.5}},{"type":"Feature","geometry":{"type":"Point","coordinates":[-113.018102,45.14105]},"properties":{"name":"Grub Stake #22","source":"blm","type":"Active","weight":0.5}},{"type":"Feature","geometry":{"type":"Point","coordinates":[-115.953968,43.955294]},"properties":{"name":"CALI YIELDS","source":"blm","type":"Filed","weight":0.5}},{"type":"Feature","geometry":{"type":"Point","coordinates":[-115.650571,43.811045]},"properties":{"name":"RABBIT NUGGETS","source":"blm","type":"Filed","weight":0.5}},{"type":"Feature","geometry":{"type":"Point","coordinates":[-116.347285,46.756589]},"properties":{"name":"NO SWEAT #2","source":"blm","type":"Filed","weight":0.5}},{"type":"Feature","geometry":{"type":"Point","coordinates":[-115.077844,46.748194]},"properties":{"name":"EASY DOES IT #2","source":"blm","type":"Filed","weight":0.5}},{"type":"Feature","geometry":{"type":"Point","coordinates":[-112.101921,45.516685]},"properties":{"name":"Cherokee Smith","source":"blm","type":"Active","weight":0.5}},{"type":"Feature","geometry":{"type":"Point","coordinates":[-115.42368,47.363096]},"properties":{"name":"Crazy Andy","source":"blm","type":"Active","weight":0.5}},{"type":"Feature","geometry":{"type":"Point","coordinates":[-123.63158,42.484191]},"properties":{"name":"Matchless","source":"blm","type":"Active","weight":0.5}},{"type":"Feature","geometry":{"type":"Point","coordinates":[-118.329725,44.713183]},"properties":{"name":"Old Channel South","source":"blm","type":"Active","weight":0.5}},{"type":"Feature","geometry":{"type":"Point","coordinates":[-123.75641,42.849674]},"properties":{"name":"Mountain Gold 1","source":"blm","type":"Active","weight":0.5}},{"type":"Feature","geometry":{"type":"Point","coordinates":[-123.75641,42.849674]},"properties":{"name":"Mountain Gold","source":"blm","type":"Active","weight":0.5}},{"type":"Feature","geometry":{"type":"Point","coordinates":[-115.98874,42.782368]},"properties":{"name":"APPLEJACK","source":"blm","type":"Filed","weight":0.5}},{"type":"Feature","geometry":{"type":"Point","coordinates":[-115.937732,47.603373]},"properties":{"name":"ONE EYED WILLY","source":"blm","type":"Filed","weight":0.5}},{"type":"Feature","geometry":{"type":"Point","coordinates":[-112.02106,45.213692]},"properties":{"name":"Shady Nook Placer","source":"blm","type":"Active","weight":0.5}},{"type":"Feature","geometry":{"type":"Point","coordinates":[-115.916377,47.583275]},"properties":{"name":"SHOCOMA 1","source":"blm","type":"Filed","weight":0.5}},{"type":"Feature","geometry":{"type":"Point","coordinates":[-112.101921,45.516685]},"properties":{"name":"Sagebrush Flats","source":"blm","type":"Active","weight":0.5}},{"type":"Feature","geometry":{"type":"Point","coordinates":[-115.904822,45.38095]},"properties":{"name":"THE STRONGHOLD","source":"blm","type":"Filed","weight":0.5}},{"type":"Feature","geometry":{"type":"Point","coordinates":[-115.769578,43.825557]},"properties":{"name":"KARAT KING","source":"blm","type":"Filed","weight":0.5}},{"type":"Feature","geometry":{"type":"Point","coordinates":[-115.769578,43.825557]},"properties":{"name":"FORTUNE SEEKER","source":"blm","type":"Filed","weight":0.5}},{"type":"Feature","geometry":{"type":"Point","coordinates":[-112.015951,45.217308]},"properties":{"name":"The Golden Garden #2","source":"blm","type":"Active","weight":0.5}},{"type":"Feature","geometry":{"type":"Point","coordinates":[-114.920843,47.076821]},"properties":{"name":"Long Sweep","source":"blm","type":"Active","weight":0.5}},{"type":"Feature","geometry":{"type":"Point","coordinates":[-114.902723,47.098323]},"properties":{"name":"Sling Shot","source":"blm","type":"Active","weight":0.5}},{"type":"Feature","geometry":{"type":"Point","coordinates":[-114.904098,47.08726]},"properties":{"name":"Fly Fish","source":"blm","type":"Active","weight":0.5}},{"type":"Feature","geometry":{"type":"Point","coordinates":[-123.756162,42.503944]},"properties":{"name":"Silver Placer #1","source":"blm","type":"Active","weight":0.5}},{"type":"Feature","geometry":{"type":"Point","coordinates":[-112.255404,46.330671]},"properties":{"name":"The Uncle Sam Placer","source":"blm","type":"Active","weight":0.5}},{"type":"Feature","geometry":{"type":"Point","coordinates":[-112.017171,45.492549]},"properties":{"name":"Cock Eyed Jack","source":"blm","type":"Active","weight":0.5}},{"type":"Feature","geometry":{"type":"Point","coordinates":[-112.019582,45.487108]},"properties":{"name":"Sheet Iron Jack","source":"blm","type":"Active","weight":0.5}},{"type":"Feature","geometry":{"type":"Point","coordinates":[-115.421011,47.368526]},"properties":{"name":"Renegade Flats","source":"blm","type":"Active","weight":0.5}},{"type":"Feature","geometry":{"type":"Point","coordinates":[-120.694362,47.267361]},"properties":{"name":"Bigfoot Bench","source":"blm","type":"Active","weight":0.5}},{"type":"Feature","geometry":{"type":"Point","coordinates":[-116.580372,48.511824]},"properties":{"name":"ERIK'S GOLD","source":"blm","type":"Filed","weight":0.5}},{"type":"Feature","geometry":{"type":"Point","coordinates":[-115.083093,46.73734]},"properties":{"name":"MCP 6","source":"blm","type":"Filed","weight":0.5}},{"type":"Feature","geometry":{"type":"Point","coordinates":[-115.083093,46.73734]},"properties":{"name":"MCP 8","source":"blm","type":"Filed","weight":0.5}},{"type":"Feature","geometry":{"type":"Point","coordinates":[-115.083073,46.722868]},"properties":{"name":"MCP 17","source":"blm","type":"Filed","weight":0.5}},{"type":"Feature","geometry":{"type":"Point","coordinates":[-115.636292,43.971275]},"properties":{"name":"EDNA'S YIELDS","source":"blm","type":"Active","weight":0.5}},{"type":"Feature","geometry":{"type":"Point","coordinates":[-115.083093,46.73734]},"properties":{"name":"MCP 7","source":"blm","type":"Filed","weight":0.5}},{"type":"Feature","geometry":{"type":"Point","coordinates":[-115.909179,43.972829]},"properties":{"name":"THE BIG OPHIR","source":"blm","type":"Active","weight":0.5}},{"type":"Feature","geometry":{"type":"Point","coordinates":[-123.08225,42.149021]},"properties":{"name":"Perfection","source":"blm","type":"Active","weight":0.5}},{"type":"Feature","geometry":{"type":"Point","coordinates":[-113.225493,46.813822]},"properties":{"name":"The Fort Knox","source":"blm","type":"Active","weight":0.5}},{"type":"Feature","geometry":{"type":"Point","coordinates":[-115.70629,45.275787]},"properties":{"name":"EASY DIGGINS","source":"blm","type":"Active","weight":0.5}},{"type":"Feature","geometry":{"type":"Point","coordinates":[-115.705921,45.264642]},"properties":{"name":"SISTERS OF WARREN","source":"blm","type":"Active","weight":0.5}},{"type":"Feature","geometry":{"type":"Point","coordinates":[-123.28427,42.078396]},"properties":{"name":"Sturgis 5","source":"blm","type":"Active","weight":0.5}},{"type":"Feature","geometry":{"type":"Point","coordinates":[-123.303727,42.078329]},"properties":{"name":"Sturgis 4","source":"blm","type":"Active","weight":0.5}},{"type":"Feature","geometry":{"type":"Point","coordinates":[-123.303727,42.078329]},"properties":{"name":"Sturgis 3","source":"blm","type":"Active","weight":0.5}},{"type":"Feature","geometry":{"type":"Point","coordinates":[-123.294017,42.078361]},"properties":{"name":"Sturgis 2","source":"blm","type":"Active","weight":0.5}},{"type":"Feature","geometry":{"type":"Point","coordinates":[-123.294017,42.078361]},"properties":{"name":"Sturgis 1","source":"blm","type":"Active","weight":0.5}},{"type":"Feature","geometry":{"type":"Point","coordinates":[-124.076266,42.765308]},"properties":{"name":"Indian Larry","source":"blm","type":"Active","weight":0.5}},{"type":"Feature","geometry":{"type":"Point","coordinates":[-123.540653,42.836757]},"properties":{"name":"Golden Bell One","source":"blm","type":"Active","weight":0.5}},{"type":"Feature","geometry":{"type":"Point","coordinates":[-124.068882,42.763479]},"properties":{"name":"Area 52","source":"blm","type":"Active","weight":0.5}},{"type":"Feature","geometry":{"type":"Point","coordinates":[-115.756197,45.057991]},"properties":{"name":"Secesh Golden Dreams 6","source":"blm","type":"Active","weight":0.5}},{"type":"Feature","geometry":{"type":"Point","coordinates":[-115.756191,45.054376]},"properties":{"name":"Secesh Golden Dreams 5","source":"blm","type":"Active","weight":0.5}},{"type":"Feature","geometry":{"type":"Point","coordinates":[-115.42074,47.36436]},"properties":{"name":"Shebang","source":"blm","type":"Active","weight":0.5}},{"type":"Feature","geometry":{"type":"Point","coordinates":[-123.697008,42.942006]},"properties":{"name":"Boulder Creek","source":"blm","type":"Active","weight":0.5}},{"type":"Feature","geometry":{"type":"Point","coordinates":[-118.752123,44.972497]},"properties":{"name":"The Golden Mile","source":"blm","type":"Active","weight":0.5}},{"type":"Feature","geometry":{"type":"Point","coordinates":[-123.234563,42.64819]},"properties":{"name":"Grave Creek 2","source":"blm","type":"Active","weight":0.5}},{"type":"Feature","geometry":{"type":"Point","coordinates":[-113.044073,45.296863]},"properties":{"name":"Catfish Kid","source":"blm","type":"Active","weight":0.5}},{"type":"Feature","geometry":{"type":"Point","coordinates":[-113.745256,45.547534]},"properties":{"name":"The Ruby Creek Placer #1","source":"blm","type":"Active","weight":0.5}},{"type":"Feature","geometry":{"type":"Point","coordinates":[-113.747814,45.542097]},"properties":{"name":"Ruby Creek Placer #2","source":"blm","type":"Active","weight":0.5}},{"type":"Feature","geometry":{"type":"Point","coordinates":[-113.225361,46.828404]},"properties":{"name":"Honest Tom","source":"blm","type":"Active","weight":0.5}},{"type":"Feature","geometry":{"type":"Point","coordinates":[-113.225495,46.821056]},"properties":{"name":"Digger Deb","source":"blm","type":"Active","weight":0.5}},{"type":"Feature","geometry":{"type":"Point","coordinates":[-113.225495,46.821056]},"properties":{"name":"One-Eyed Jack","source":"blm","type":"Active","weight":0.5}},{"type":"Feature","geometry":{"type":"Point","coordinates":[-113.220144,46.824814]},"properties":{"name":"Wild Bill","source":"blm","type":"Active","weight":0.5}},{"type":"Feature","geometry":{"type":"Point","coordinates":[-113.220144,46.824814]},"properties":{"name":"Rocky Top","source":"blm","type":"Active","weight":0.5}},{"type":"Feature","geometry":{"type":"Point","coordinates":[-112.276785,46.400283]},"properties":{"name":"The Gold Basin #1","source":"blm","type":"Active","weight":0.5}},{"type":"Feature","geometry":{"type":"Point","coordinates":[-111.798046,46.711369]},"properties":{"name":"Sugar Britches","source":"blm","type":"Active","weight":0.5}},{"type":"Feature","geometry":{"type":"Point","coordinates":[-113.225493,46.813822]},"properties":{"name":"The Fort Knox #2","source":"blm","type":"Active","weight":0.5}},{"type":"Feature","geometry":{"type":"Point","coordinates":[-111.952351,45.557035]},"properties":{"name":"The GW#5","source":"blm","type":"Active","weight":0.5}},{"type":"Feature","geometry":{"type":"Point","coordinates":[-113.775034,45.54755]},"properties":{"name":"The Golden Calf","source":"blm","type":"Active","weight":0.5}},{"type":"Feature","geometry":{"type":"Point","coordinates":[-114.156518,45.604721]},"properties":{"name":"HGP#1","source":"blm","type":"Active","weight":0.5}},{"type":"Feature","geometry":{"type":"Point","coordinates":[-114.156518,45.604721]},"properties":{"name":"HGP#2","source":"blm","type":"Active","weight":0.5}},{"type":"Feature","geometry":{"type":"Point","coordinates":[-123.298881,42.586088]},"properties":{"name":"Jack in the box","source":"blm","type":"Active","weight":0.5}},{"type":"Feature","geometry":{"type":"Point","coordinates":[-123.303834,42.589773]},"properties":{"name":"Jack #2","source":"blm","type":"Active","weight":0.5}},{"type":"Feature","geometry":{"type":"Point","coordinates":[-114.177139,45.619179]},"properties":{"name":"LG Placer","source":"blm","type":"Active","weight":0.5}},{"type":"Feature","geometry":{"type":"Point","coordinates":[-112.034894,45.484146]},"properties":{"name":"Stinky Earl","source":"blm","type":"Active","weight":0.5}},{"type":"Feature","geometry":{"type":"Point","coordinates":[-123.75641,42.849674]},"properties":{"name":"Mountain Gold 2","source":"blm","type":"Active","weight":0.5}},{"type":"Feature","geometry":{"type":"Point","coordinates":[-120.765344,48.748676]},"properties":{"name":"Two Friends","source":"blm","type":"Filed","weight":0.5}},{"type":"Feature","geometry":{"type":"Point","coordinates":[-123.026255,43.030441]},"properties":{"name":"Days End PMC","source":"blm","type":"Active","weight":0.5}},{"type":"Feature","geometry":{"type":"Point","coordinates":[-123.561345,42.773786]},"properties":{"name":"Cow Creek Gold","source":"blm","type":"Active","weight":0.5}},{"type":"Feature","geometry":{"type":"Point","coordinates":[-117.351043,44.96924]},"properties":{"name":"Leaverite IV","source":"blm","type":"Active","weight":0.5}},{"type":"Feature","geometry":{"type":"Point","coordinates":[-112.721662,47.038294]},"properties":{"name":"Stonewall No.6","source":"blm","type":"Active","weight":0.5}},{"type":"Feature","geometry":{"type":"Point","coordinates":[-113.635295,46.3344]},"properties":{"name":"GMS#1","source":"blm","type":"Active","weight":0.5}},{"type":"Feature","geometry":{"type":"Point","coordinates":[-123.027788,42.816572]},"properties":{"name":"Mow Cow 3","source":"blm","type":"Active","weight":0.5}},{"type":"Feature","geometry":{"type":"Point","coordinates":[-112.716327,47.012975]},"properties":{"name":"SWP#1","source":"blm","type":"Active","weight":0.5}},{"type":"Feature","geometry":{"type":"Point","coordinates":[-112.726896,47.012955]},"properties":{"name":"SWP#2","source":"blm","type":"Active","weight":0.5}},{"type":"Feature","geometry":{"type":"Point","coordinates":[-116.022872,45.499825]},"properties":{"name":"SUMMIT 6","source":"blm","type":"Active","weight":0.5}},{"type":"Feature","geometry":{"type":"Point","coordinates":[-111.239744,43.154726]},"properties":{"name":"BELLA #2","source":"blm","type":"Active","weight":0.5}},{"type":"Feature","geometry":{"type":"Point","coordinates":[-111.26941,43.111311]},"properties":{"name":"BELLA #3","source":"blm","type":"Filed","weight":0.5}},{"type":"Feature","geometry":{"type":"Point","coordinates":[-111.249631,43.133009]},"properties":{"name":"BELLA #4","source":"blm","type":"Filed","weight":0.5}},{"type":"Feature","geometry":{"type":"Point","coordinates":[-115.848194,43.888643]},"properties":{"name":"TROPHY FINDS","source":"blm","type":"Active","weight":0.5}},{"type":"Feature","geometry":{"type":"Point","coordinates":[-123.102792,42.105517]},"properties":{"name":"Lucky Break","source":"blm","type":"Active","weight":0.5}},{"type":"Feature","geometry":{"type":"Point","coordinates":[-111.353899,46.899427]},"properties":{"name":"Jevning","source":"blm","type":"Active","weight":0.5}},{"type":"Feature","geometry":{"type":"Point","coordinates":[-111.353899,46.899427]},"properties":{"name":"Hurren","source":"blm","type":"Active","weight":0.5}},{"type":"Feature","geometry":{"type":"Point","coordinates":[-111.353899,46.899427]},"properties":{"name":"Gomez","source":"blm","type":"Active","weight":0.5}},{"type":"Feature","geometry":{"type":"Point","coordinates":[-111.353899,46.899427]},"properties":{"name":"Bachmann","source":"blm","type":"Active","weight":0.5}},{"type":"Feature","geometry":{"type":"Point","coordinates":[-115.407652,47.366702]},"properties":{"name":"Humdinger","source":"blm","type":"Active","weight":0.5}},{"type":"Feature","geometry":{"type":"Point","coordinates":[-115.188778,47.233058]},"properties":{"name":"The Swede","source":"blm","type":"Active","weight":0.5}},{"type":"Feature","geometry":{"type":"Point","coordinates":[-111.353899,46.899427]},"properties":{"name":"Juntunen","source":"blm","type":"Active","weight":0.5}},{"type":"Feature","geometry":{"type":"Point","coordinates":[-111.353899,46.899427]},"properties":{"name":"Allen","source":"blm","type":"Active","weight":0.5}},{"type":"Feature","geometry":{"type":"Point","coordinates":[-111.353899,46.899427]},"properties":{"name":"Stuessy","source":"blm","type":"Active","weight":0.5}},{"type":"Feature","geometry":{"type":"Point","coordinates":[-111.353899,46.899427]},"properties":{"name":"Gannon","source":"blm","type":"Active","weight":0.5}},{"type":"Feature","geometry":{"type":"Point","coordinates":[-111.353899,46.899427]},"properties":{"name":"Certain","source":"blm","type":"Active","weight":0.5}},{"type":"Feature","geometry":{"type":"Point","coordinates":[-112.410682,45.80394]},"properties":{"name":"Tinker Jake","source":"blm","type":"Active","weight":0.5}},{"type":"Feature","geometry":{"type":"Point","coordinates":[-123.037694,42.795101]},"properties":{"name":"Don's Gold","source":"blm","type":"Active","weight":0.5}},{"type":"Feature","geometry":{"type":"Point","coordinates":[-116.659588,43.064374]},"properties":{"name":"GOLDEN ROSE","source":"blm","type":"Filed","weight":0.5}},{"type":"Feature","geometry":{"type":"Point","coordinates":[-115.453439,43.939598]},"properties":{"name":"BR # 10","source":"blm","type":"Active","weight":0.5}},{"type":"Feature","geometry":{"type":"Point","coordinates":[-111.911459,45.381964]},"properties":{"name":"Beaverhead #14","source":"blm","type":"Active","weight":0.5}},{"type":"Feature","geometry":{"type":"Point","coordinates":[-111.911459,45.381964]},"properties":{"name":"Beaverhead #15","source":"blm","type":"Active","weight":0.5}},{"type":"Feature","geometry":{"type":"Point","coordinates":[-111.921736,45.396534]},"properties":{"name":"Beaverhead #21","source":"blm","type":"Active","weight":0.5}},{"type":"Feature","geometry":{"type":"Point","coordinates":[-111.911459,45.381964]},"properties":{"name":"Beaverhead #16","source":"blm","type":"Active","weight":0.5}},{"type":"Feature","geometry":{"type":"Point","coordinates":[-111.921756,45.389271]},"properties":{"name":"Beaverhead #18","source":"blm","type":"Active","weight":0.5}},{"type":"Feature","geometry":{"type":"Point","coordinates":[-111.921736,45.396534]},"properties":{"name":"Beaverhead #22","source":"blm","type":"Active","weight":0.5}},{"type":"Feature","geometry":{"type":"Point","coordinates":[-111.911459,45.381964]},"properties":{"name":"Beaverhead #17","source":"blm","type":"Active","weight":0.5}},{"type":"Feature","geometry":{"type":"Point","coordinates":[-123.165889,42.618988]},"properties":{"name":"Z Gold Mine","source":"blm","type":"Active","weight":0.5}},{"type":"Feature","geometry":{"type":"Point","coordinates":[-117.569662,44.574252]},"properties":{"name":"Burnt Gold 4","source":"blm","type":"Active","weight":0.5}},{"type":"Feature","geometry":{"type":"Point","coordinates":[-120.64893,47.270483]},"properties":{"name":"Lucky Strikes 2","source":"blm","type":"Active","weight":0.5}},{"type":"Feature","geometry":{"type":"Point","coordinates":[-120.657173,47.271053]},"properties":{"name":"Lucky Strikes 4","source":"blm","type":"Active","weight":0.5}},{"type":"Feature","geometry":{"type":"Point","coordinates":[-117.397363,44.995858]},"properties":{"name":"E C # 1","source":"blm","type":"Active","weight":0.5}},{"type":"Feature","geometry":{"type":"Point","coordinates":[-115.892045,44.661502]},"properties":{"name":"Gold CAT # 11","source":"blm","type":"Active","weight":0.5}},{"type":"Feature","geometry":{"type":"Point","coordinates":[-112.443263,46.694399]},"properties":{"name":"HILLTOP","source":"blm","type":"Active","weight":0.5}},{"type":"Feature","geometry":{"type":"Point","coordinates":[-112.701397,45.71983]},"properties":{"name":"Golden Moose","source":"blm","type":"Active","weight":0.5}},{"type":"Feature","geometry":{"type":"Point","coordinates":[-112.990895,45.182618]},"properties":{"name":"Hangman's Gold 6","source":"blm","type":"Active","weight":0.5}},{"type":"Feature","geometry":{"type":"Point","coordinates":[-112.990889,45.186234]},"properties":{"name":"Hangman's Gold 7","source":"blm","type":"Active","weight":0.5}},{"type":"Feature","geometry":{"type":"Point","coordinates":[-112.990889,45.186234]},"properties":{"name":"Hangman's Gold 8","source":"blm","type":"Active","weight":0.5}},{"type":"Feature","geometry":{"type":"Point","coordinates":[-120.670385,47.270785]},"properties":{"name":"Lion Gulch #2","source":"blm","type":"Filed","weight":0.5}},{"type":"Feature","geometry":{"type":"Point","coordinates":[-120.6673,47.27264]},"properties":{"name":"Lion Gulch Gold #3","source":"blm","type":"Filed","weight":0.5}},{"type":"Feature","geometry":{"type":"Point","coordinates":[-120.666997,47.274685]},"properties":{"name":"Lion Gulch Gold #4","source":"blm","type":"Filed","weight":0.5}},{"type":"Feature","geometry":{"type":"Point","coordinates":[-120.67061,47.276605]},"properties":{"name":"Lion Gulch Gold #5","source":"blm","type":"Filed","weight":0.5}},{"type":"Feature","geometry":{"type":"Point","coordinates":[-112.67809,45.737882]},"properties":{"name":"Wiz Bang","source":"blm","type":"Active","weight":0.5}},{"type":"Feature","geometry":{"type":"Point","coordinates":[-123.254286,42.669939]},"properties":{"name":"Provenance","source":"blm","type":"Active","weight":0.5}},{"type":"Feature","geometry":{"type":"Point","coordinates":[-123.254286,42.669939]},"properties":{"name":"Wellspring","source":"blm","type":"Active","weight":0.5}},{"type":"Feature","geometry":{"type":"Point","coordinates":[-115.690074,43.832287]},"properties":{"name":"Rabbit Galore","source":"blm","type":"Filed","weight":0.5}},{"type":"Feature","geometry":{"type":"Point","coordinates":[-114.659213,47.233088]},"properties":{"name":"Beecher Creek","source":"blm","type":"Active","weight":0.5}},{"type":"Feature","geometry":{"type":"Point","coordinates":[-111.913313,45.253921]},"properties":{"name":"Hungry Placer Mining Claim","source":"blm","type":"Active","weight":0.5}},{"type":"Feature","geometry":{"type":"Point","coordinates":[-115.789475,43.988761]},"properties":{"name":"CLEAR CR GOLD","source":"blm","type":"Under Review","weight":0.5}},{"type":"Feature","geometry":{"type":"Point","coordinates":[-115.789475,43.988761]},"properties":{"name":"GOLDEN FIND","source":"blm","type":"Under Review","weight":0.5}},{"type":"Feature","geometry":{"type":"Point","coordinates":[-112.675511,45.739677]},"properties":{"name":"Texas Frank","source":"blm","type":"Active","weight":0.5}},{"type":"Feature","geometry":{"type":"Point","coordinates":[-116.654641,43.064374]},"properties":{"name":"DUANE'S DREAM","source":"blm","type":"Filed","weight":0.5}},{"type":"Feature","geometry":{"type":"Point","coordinates":[-115.429034,47.36672]},"properties":{"name":"Bypass Johnny","source":"blm","type":"Active","weight":0.5}},{"type":"Feature","geometry":{"type":"Point","coordinates":[-115.792738,43.814753]},"properties":{"name":"KIM'S RUM RUNNER","source":"blm","type":"Active","weight":0.5}},{"type":"Feature","geometry":{"type":"Point","coordinates":[-115.789522,43.811136]},"properties":{"name":"Bannock Riches","source":"blm","type":"Active","weight":0.5}},{"type":"Feature","geometry":{"type":"Point","coordinates":[-115.789522,43.811136]},"properties":{"name":"BRUTKE'S PHANTOM 314","source":"blm","type":"Active","weight":0.5}},{"type":"Feature","geometry":{"type":"Point","coordinates":[-115.690026,43.818009]},"properties":{"name":"Lucky Rabbit","source":"blm","type":"Active","weight":0.5}},{"type":"Feature","geometry":{"type":"Point","coordinates":[-111.921825,45.36748]},"properties":{"name":"Alder Gold 2","source":"blm","type":"Active","weight":0.5}},{"type":"Feature","geometry":{"type":"Point","coordinates":[-111.921825,45.36748]},"properties":{"name":"Alder Gold 3","source":"blm","type":"Active","weight":0.5}},{"type":"Feature","geometry":{"type":"Point","coordinates":[-111.932096,45.3675]},"properties":{"name":"Alder Gold 6","source":"blm","type":"Active","weight":0.5}},{"type":"Feature","geometry":{"type":"Point","coordinates":[-115.338066,47.291697]},"properties":{"name":"Gold Creek","source":"blm","type":"Active","weight":0.5}},