{"type": "FeatureCollection", "features": [{"type": "Feature", "geometry": {"type": "Point", "coordinates": [-116.29963, 47.42316]}, "properties": {"source": "mrds", "name": "Western King Prospect", "type": "Vein", "weight": 1.0}}, {"type": "Feature", "geometry": {"type": "Point", "coordinates": [-115.40376, 45.15768]}, "properties": {"source": "mrds", "name": "Morning Star Tungsten Claims", "type": "Vein", "weight": 0.5}}, {"type": "Feature", "geometry": {"type": "Point", "coordinates": [-116.32099, 44.92047]}, "properties": {"source": "mrds", "name": "New Meadows Manganese Deposit", "type": "Unknown", "weight": 0.5}}, {"type": "Feature", "geometry": {"type": "Point", "coordinates": [-111.45608, 42.15076]}, "properties": {"source": "mrds", "name": "Worm Creek Prospect", "type": "Sedimentary", "weight": 0.5}}, {"type": "Feature", "geometry": {"type": "Point", "coordinates": [-113.3189, 44.4811]}, "properties": {"source": "mrds", "name": "Hilltop Mine", "type": "Unknown", "weight": 1.0}}, {"type": "Feature", "geometry": {"type": "Point", "coordinates": [-114.2861, 44.9844]}, "properties": {"source": "mrds", "name": "Iron King Group Nos 1 - 17", "type": "Unknown", "weight": 0.5}}, {"type": "Feature", "geometry": {"type": "Point", "coordinates": [-123.87033, 42.21204]}, "properties": {"source": "mrds", "name": "Chromite Float Occurrence", "type": "Unknown", "weight": 1.0}}, {"type": "Feature", "geometry": {"type": "Point", "coordinates": [-123.24282, 42.67899]}, "properties": {"source": "mrds", "name": "Boulder Creek Manganese & Mineral Ledge", "type": "Unknown", "weight": 0.5}}, {"type": "Feature", "geometry": {"type": "Point", "coordinates": [-123.51837, 42.12871]}, "properties": {"source": "mrds", "name": "Cannon & Connacher Prospect", "type": "Unknown", "weight": 0.5}}, {"type": "Feature", "geometry": {"type": "Point", "coordinates": [-123.49671, 42.05676]}, "properties": {"source": "mrds", "name": "Althouse -Run Gulch Placer", "type": "Unknown", "weight": 3.0}}, {"type": "Feature", "geometry": {"type": "Point", "coordinates": [-123.44059, 42.12482]}, "properties": {"source": "mrds", "name": "Ow Yuen Claims", "type": "Unknown", "weight": 0.5}}, {"type": "Feature", "geometry": {"type": "Point", "coordinates": [-122.98947, 42.4265]}, "properties": {"source": "mrds", "name": "Millionaire", "type": "Unknown", "weight": 0.5}}, {"type": "Feature", "geometry": {"type": "Point", "coordinates": [-122.61807, 42.46705]}, "properties": {"source": "mrds", "name": "Homestake Claim", "type": "Unknown", "weight": 0.5}}, {"type": "Feature", "geometry": {"type": "Point", "coordinates": [-122.54946, 42.454]}, "properties": {"source": "mrds", "name": "Star F. Ranch", "type": "Unknown", "weight": 0.5}}, {"type": "Feature", "geometry": {"type": "Point", "coordinates": [-122.58391, 42.36789]}, "properties": {"source": "mrds", "name": "Bush Ranch", "type": "Unknown", "weight": 0.5}}, {"type": "Feature", "geometry": {"type": "Point", "coordinates": [-122.60641, 42.34927]}, "properties": {"source": "mrds", "name": "Fox Prospect", "type": "Unknown", "weight": 0.5}}, {"type": "Feature", "geometry": {"type": "Point", "coordinates": [-122.60224, 42.344]}, "properties": {"source": "mrds", "name": "Coon Creek Claims", "type": "Unknown", "weight": 0.5}}, {"type": "Feature", "geometry": {"type": "Point", "coordinates": [-122.84252, 42.18344]}, "properties": {"source": "mrds", "name": "Peters Manganese", "type": "Unknown", "weight": 1.0}}, {"type": "Feature", "geometry": {"type": "Point", "coordinates": [-123.10892, 42.4951]}, "properties": {"source": "mrds", "name": "Manganese Prospect", "type": "Unknown", "weight": 0.5}}, {"type": "Feature", "geometry": {"type": "Point", "coordinates": [-123.22587, 42.36288]}, "properties": {"source": "mrds", "name": "First Hope", "type": "Unknown", "weight": 1.0}}, {"type": "Feature", "geometry": {"type": "Point", "coordinates": [-122.99753, 42.37483]}, "properties": {"source": "mrds", "name": "Bailey Property", "type": "Unknown", "weight": 0.5}}, {"type": "Feature", "geometry": {"type": "Point", "coordinates": [-118.27633, 44.71874]}, "properties": {"source": "mrds", "name": "Dry Creek Manganese", "type": "Unknown", "weight": 1.0}}, {"type": "Feature", "geometry": {"type": "Point", "coordinates": [-117.65131, 44.71764]}, "properties": {"source": "mrds", "name": "Black Bird #1 Claim", "type": "Unknown", "weight": 0.5}}, {"type": "Feature", "geometry": {"type": "Point", "coordinates": [-117.6702, 44.72125]}, "properties": {"source": "mrds", "name": "Black Caps Lode Claim", "type": "Unknown", "weight": 0.5}}, {"type": "Feature", "geometry": {"type": "Point", "coordinates": [-117.64464, 44.70986]}, "properties": {"source": "mrds", "name": "Section 12 Manganese Occurrence", "type": "Unknown", "weight": 0.5}}, {"type": "Feature", "geometry": {"type": "Point", "coordinates": [-117.62825, 44.70042]}, "properties": {"source": "mrds", "name": "Utah Mine", "type": "Unknown", "weight": 3.0}}, {"type": "Feature", "geometry": {"type": "Point", "coordinates": [-117.56435, 44.72708]}, "properties": {"source": "mrds", "name": "Black Negro", "type": "Unknown", "weight": 1.0}}, {"type": "Feature", "geometry": {"type": "Point", "coordinates": [-117.60074, 44.71264]}, "properties": {"source": "mrds", "name": "Manganese #5 Claim", "type": "Unknown", "weight": 0.5}}, {"type": "Feature", "geometry": {"type": "Point", "coordinates": [-117.59546, 44.69819]}, "properties": {"source": "mrds", "name": "Black Prince", "type": "Unknown", "weight": 0.5}}, {"type": "Feature", "geometry": {"type": "Point", "coordinates": [-117.61631, 44.69236]}, "properties": {"source": "mrds", "name": "Black Joe Mine", "type": "Unknown", "weight": 3.0}}, {"type": "Feature", "geometry": {"type": "Point", "coordinates": [-117.50935, 44.67069]}, "properties": {"source": "mrds", "name": "Collie No. 2 Claim", "type": "Unknown", "weight": 0.5}}, {"type": "Feature", "geometry": {"type": "Point", "coordinates": [-117.52074, 44.66625]}, "properties": {"source": "mrds", "name": "Jay Bird Claim", "type": "Unknown", "weight": 0.5}}, {"type": "Feature", "geometry": {"type": "Point", "coordinates": [-117.57824, 44.55708]}, "properties": {"source": "mrds", "name": "Sheep Mountain Group", "type": "242: Sedimentary Mn", "weight": 1.0}}, {"type": "Feature", "geometry": {"type": "Point", "coordinates": [-117.49602, 44.66597]}, "properties": {"source": "mrds", "name": "Canyon Site Claim", "type": "Unknown", "weight": 0.5}}, {"type": "Feature", "geometry": {"type": "Point", "coordinates": [-117.48963, 44.65236]}, "properties": {"source": "mrds", "name": "Jetta Mae No. 1", "type": "Unknown", "weight": 0.5}}, {"type": "Feature", "geometry": {"type": "Point", "coordinates": [-117.41324, 44.53792]}, "properties": {"source": "mrds", "name": "Prescott Claims", "type": "242: Sedimentary Mn", "weight": 0.5}}, {"type": "Feature", "geometry": {"type": "Point", "coordinates": [-117.39102, 44.50875]}, "properties": {"source": "mrds", "name": "Section 24 Gold Occurrence", "type": "273: Low-sulfide Au-quartz vein", "weight": 0.5}}, {"type": "Feature", "geometry": {"type": "Point", "coordinates": [-119.38413, 44.25485]}, "properties": {"source": "mrds", "name": "Mack Claims", "type": "Unknown", "weight": 0.5}}, {"type": "Feature", "geometry": {"type": "Point", "coordinates": [-119.02745, 44.46402]}, "properties": {"source": "mrds", "name": "Beggs Manganese", "type": "Unknown", "weight": 0.5}}, {"type": "Feature", "geometry": {"type": "Point", "coordinates": [-118.60523, 44.69485]}, "properties": {"source": "mrds", "name": "Lady Bug Group", "type": "Vein", "weight": 1.0}}, {"type": "Feature", "geometry": {"type": "Point", "coordinates": [-118.48494, 44.72707]}, "properties": {"source": "mrds", "name": "Royal White", "type": "Vein", "weight": 1.0}}, {"type": "Feature", "geometry": {"type": "Point", "coordinates": [-119.01272, 43.89735]}, "properties": {"source": "mrds", "name": "Silver Blossom Prospect", "type": "Unknown", "weight": 0.5}}, {"type": "Feature", "geometry": {"type": "Point", "coordinates": [-122.60807, 42.49983]}, "properties": {"source": "mrds", "name": "Grand Cove Prospect", "type": "Unknown", "weight": 0.5}}, {"type": "Feature", "geometry": {"type": "Point", "coordinates": [-117.86964, 44.5543]}, "properties": {"source": "mrds", "name": "Pinky Manganese", "type": "Replacement", "weight": 1.0}}, {"type": "Feature", "geometry": {"type": "Point", "coordinates": [-117.62714, 44.7043]}, "properties": {"source": "mrds", "name": "Anchora Leland #1 and #2", "type": "Unknown", "weight": 0.5}}, {"type": "Feature", "geometry": {"type": "Point", "coordinates": [-117.3038, 44.67597]}, "properties": {"source": "mrds", "name": "Jim Berri Manganese Prospect", "type": "Unknown", "weight": 0.5}}, {"type": "Feature", "geometry": {"type": "Point", "coordinates": [-117.48019, 44.6593]}, "properties": {"source": "mrds", "name": "Seminole Claim", "type": "Replacement", "weight": 0.5}}, {"type": "Feature", "geometry": {"type": "Point", "coordinates": [-119.07856, 44.37929]}, "properties": {"source": "mrds", "name": "Wyllie Prospect", "type": "Unknown", "weight": 1.0}}, {"type": "Feature", "geometry": {"type": "Point", "coordinates": [-118.96406, 43.05976]}, "properties": {"source": "mrds", "name": "Sunset and Surprise Deposit", "type": "Unknown", "weight": 3.0}}, {"type": "Feature", "geometry": {"type": "Point", "coordinates": [-118.54491, 42.60404]}, "properties": {"source": "mrds", "name": "Rhoads Prospect", "type": "155: Volcanogenic U", "weight": 0.5}}, {"type": "Feature", "geometry": {"type": "Point", "coordinates": [-123.25004, 42.6726]}, "properties": {"source": "mrds", "name": "Maynard - French", "type": "Unknown", "weight": 0.5}}, {"type": "Feature", "geometry": {"type": "Point", "coordinates": [-123.52254, 42.13399]}, "properties": {"source": "mrds", "name": "Condore", "type": "Unknown", "weight": 0.5}}, {"type": "Feature", "geometry": {"type": "Point", "coordinates": [-123.49671, 42.07482]}, "properties": {"source": "mrds", "name": "June Group", "type": "Unknown", "weight": 0.5}}, {"type": "Feature", "geometry": {"type": "Point", "coordinates": [-123.85949, 42.16899]}, "properties": {"source": "mrds", "name": "Manganese Prospect", "type": "Unknown", "weight": 0.5}}, {"type": "Feature", "geometry": {"type": "Point", "coordinates": [-122.34199, 44.23371]}, "properties": {"source": "mrds", "name": "Great Northern", "type": "Unknown", "weight": 1.0}}, {"type": "Feature", "geometry": {"type": "Point", "coordinates": [-122.33199, 44.23149]}, "properties": {"source": "mrds", "name": "Cinderella", "type": "Unknown", "weight": 1.0}}, {"type": "Feature", "geometry": {"type": "Point", "coordinates": [-122.71448, 43.59343]}, "properties": {"source": "mrds", "name": "Walton Creek Prospect", "type": "Unknown", "weight": 0.5}}, {"type": "Feature", "geometry": {"type": "Point", "coordinates": [-122.65559, 43.57926]}, "properties": {"source": "mrds", "name": "California Vein", "type": "Vein", "weight": 0.5}}, {"type": "Feature", "geometry": {"type": "Point", "coordinates": [-124.45508, 42.95287]}, "properties": {"source": "mrds", "name": "Newhouse Prospect", "type": "Unknown", "weight": 0.5}}, {"type": "Feature", "geometry": {"type": "Point", "coordinates": [-124.31618, 42.88342]}, "properties": {"source": "mrds", "name": "Roberts Prospect", "type": "Unknown", "weight": 0.5}}, {"type": "Feature", "geometry": {"type": "Point", "coordinates": [-124.10478, 42.55787]}, "properties": {"source": "mrds", "name": "Copper Canyon Prospect", "type": "Unknown", "weight": 0.5}}, {"type": "Feature", "geometry": {"type": "Point", "coordinates": [-124.32645, 42.14565]}, "properties": {"source": "mrds", "name": "Colegrove Prospect", "type": "Unknown", "weight": 0.5}}, {"type": "Feature", "geometry": {"type": "Point", "coordinates": [-124.37701, 42.43148]}, "properties": {"source": "mrds", "name": "Lloyd Manganese", "type": "Unknown", "weight": 0.5}}, {"type": "Feature", "geometry": {"type": "Point", "coordinates": [-124.34645, 42.24342]}, "properties": {"source": "mrds", "name": "Harden Brook Manganese", "type": "Unknown", "weight": 0.5}}, {"type": "Feature", "geometry": {"type": "Point", "coordinates": [-124.34228, 42.21037]}, "properties": {"source": "mrds", "name": "Lawrence Manganese", "type": "Unknown", "weight": 0.5}}, {"type": "Feature", "geometry": {"type": "Point", "coordinates": [-122.08033, 44.8251]}, "properties": {"source": "mrds", "name": "Russell - Ritter Mine", "type": "Unknown", "weight": 0.5}}, {"type": "Feature", "geometry": {"type": "Point", "coordinates": [-122.82613, 42.06927]}, "properties": {"source": "mrds", "name": "Iron Occurrence", "type": "Unknown", "weight": 0.5}}, {"type": "Feature", "geometry": {"type": "Point", "coordinates": [-123.37064, 44.9223]}, "properties": {"source": "mrds", "name": "Dallas Manganese", "type": "Unknown", "weight": 0.5}}, {"type": "Feature", "geometry": {"type": "Point", "coordinates": [-121.94456, 48.24787]}, "properties": {"source": "mrds", "name": "Lake Riley Prospect", "type": "Unknown", "weight": 0.5}}, {"type": "Feature", "geometry": {"type": "Point", "coordinates": [-121.78123, 48.25731]}, "properties": {"source": "mrds", "name": "French Creek Prospect", "type": "Replacement", "weight": 0.5}}, {"type": "Feature", "geometry": {"type": "Point", "coordinates": [-124.48083, 48.24]}, "properties": {"source": "mrds", "name": "Sekiu River", "type": "100: Volcanogenic Mn, Olympic Peninsula", "weight": 0.5}}, {"type": "Feature", "geometry": {"type": "Point", "coordinates": [-124.48139, 48.20472]}, "properties": {"source": "mrds", "name": "Royal", "type": "100: Volcanogenic Mn, Olympic Peninsula", "weight": 0.5}}, {"type": "Feature", "geometry": {"type": "Point", "coordinates": [-124.06722, 48.07361]}, "properties": {"source": "mrds", "name": "Lost Kremer", "type": "100: Volcanogenic Mn, Olympic Peninsula", "weight": 0.5}}, {"type": "Feature", "geometry": {"type": "Point", "coordinates": [-124.01351, 48.0834]}, "properties": {"source": "mrds", "name": "St. Regis No. 1", "type": "100: Volcanogenic Mn, Olympic Peninsula", "weight": 0.5}}, {"type": "Feature", "geometry": {"type": "Point", "coordinates": [-123.9449, 48.07757]}, "properties": {"source": "mrds", "name": "Peggy", "type": "100: Volcanogenic Mn, Olympic Peninsula", "weight": 0.5}}, {"type": "Feature", "geometry": {"type": "Point", "coordinates": [-124.24436, 48.09728]}, "properties": {"source": "mrds", "name": "State Lease", "type": "100: Volcanogenic Mn, Olympic Peninsula", "weight": 1.0}}, {"type": "Feature", "geometry": {"type": "Point", "coordinates": [-118.06861, 48.47985]}, "properties": {"source": "mrds", "name": "Marty", "type": "Unknown", "weight": 0.5}}, {"type": "Feature", "geometry": {"type": "Point", "coordinates": [-119.01836, 48.16123]}, "properties": {"source": "mrds", "name": "Gould and Curry Prospect", "type": "Unknown", "weight": 1.0}}, {"type": "Feature", "geometry": {"type": "Point", "coordinates": [-119.00114, 48.94984]}, "properties": {"source": "mrds", "name": "Moore Property", "type": "Replacement", "weight": 0.5}}, {"type": "Feature", "geometry": {"type": "Point", "coordinates": [-119.55672, 48.43845]}, "properties": {"source": "mrds", "name": "Pogue Flat Mn Deposit", "type": "Unknown", "weight": 0.5}}, {"type": "Feature", "geometry": {"type": "Point", "coordinates": [-123.94333, 48.0775]}, "properties": {"source": "mrds", "name": "Crescent Mine", "type": "100: Volcanogenic Mn, Olympic Peninsula", "weight": 1.0}}, {"type": "Feature", "geometry": {"type": "Point", "coordinates": [-123.55422, 42.46649]}, "properties": {"source": "mrds", "name": "Geo Mcallister", "type": "Unknown", "weight": 0.5}}, {"type": "Feature", "geometry": {"type": "Point", "coordinates": [-123.55616, 42.47149]}, "properties": {"source": "mrds", "name": "Max Campbell", "type": "Unknown", "weight": 0.5}}, {"type": "Feature", "geometry": {"type": "Point", "coordinates": [-123.56755, 42.45093]}, "properties": {"source": "mrds", "name": "Murray Mine", "type": "Unknown", "weight": 0.5}}, {"type": "Feature", "geometry": {"type": "Point", "coordinates": [-123.12114, 42.37954]}, "properties": {"source": "mrds", "name": "Big Buck Prospect", "type": "Unknown", "weight": 1.0}}, {"type": "Feature", "geometry": {"type": "Point", "coordinates": [-122.77557, 42.18483]}, "properties": {"source": "mrds", "name": "Burdic Group", "type": "Unknown", "weight": 0.5}}, {"type": "Feature", "geometry": {"type": "Point", "coordinates": [-123.11059, 42.95232]}, "properties": {"source": "mrds", "name": "Sitting Duck", "type": "Unknown", "weight": 0.5}}, {"type": "Feature", "geometry": {"type": "Point", "coordinates": [-123.22865, 42.76149]}, "properties": {"source": "mrds", "name": "Bull Run", "type": "Unknown", "weight": 0.5}}, {"type": "Feature", "geometry": {"type": "Point", "coordinates": [-123.30504, 42.67871]}, "properties": {"source": "mrds", "name": "Horseshoe Lode", "type": "Unknown", "weight": 3.0}}, {"type": "Feature", "geometry": {"type": "Point", "coordinates": [-123.10754, 42.5601]}, "properties": {"source": "mrds", "name": "Lee", "type": "Unknown", "weight": 1.0}}, {"type": "Feature", "geometry": {"type": "Point", "coordinates": [-124.45313, 42.84703]}, "properties": {"source": "mrds", "name": "Clapshaw", "type": "Unknown", "weight": 0.5}}, {"type": "Feature", "geometry": {"type": "Point", "coordinates": [-123.11308, 42.47788]}, "properties": {"source": "mrds", "name": "Ward Creek Manganese", "type": "Replacement", "weight": 0.5}}, {"type": "Feature", "geometry": {"type": "Point", "coordinates": [-123.09392, 42.36233]}, "properties": {"source": "mrds", "name": "Mc Lemore & Hampson's", "type": "Unknown", "weight": 3.0}}, {"type": "Feature", "geometry": {"type": "Point", "coordinates": [-123.10447, 42.35511]}, "properties": {"source": "mrds", "name": "Dixie Queen", "type": "Vein", "weight": 0.5}}, {"type": "Feature", "geometry": {"type": "Point", "coordinates": [-122.78446, 42.17733]}, "properties": {"source": "mrds", "name": "Columbine Claim", "type": "Unknown", "weight": 0.5}}, {"type": "Feature", "geometry": {"type": "Point", "coordinates": [-124.07061, 42.26593]}, "properties": {"source": "mrds", "name": "Long Ridge", "type": "Unknown", "weight": 3.0}}, {"type": "Feature", "geometry": {"type": "Point", "coordinates": [-124.08924, 42.70925]}, "properties": {"source": "mrds", "name": "Leep", "type": "Unknown", "weight": 0.5}}, {"type": "Feature", "geometry": {"type": "Point", "coordinates": [-124.10229, 42.69564]}, "properties": {"source": "mrds", "name": "Fitzgerald", "type": "Unknown", "weight": 0.5}}, {"type": "Feature", "geometry": {"type": "Point", "coordinates": [-124.32923, 42.14538]}, "properties": {"source": "mrds", "name": "Colegrove", "type": "Unknown", "weight": 0.5}}, {"type": "Feature", "geometry": {"type": "Point", "coordinates": [-124.3859, 42.40564]}, "properties": {"source": "mrds", "name": "Smith", "type": "Unknown", "weight": 0.5}}, {"type": "Feature", "geometry": {"type": "Point", "coordinates": [-123.9556, 42.00426]}, "properties": {"source": "mrds", "name": "Black Bear", "type": "Unknown", "weight": 0.5}}, {"type": "Feature", "geometry": {"type": "Point", "coordinates": [-123.56643, 42.0126]}, "properties": {"source": "mrds", "name": "Owen Claim", "type": "Unknown", "weight": 0.5}}, {"type": "Feature", "geometry": {"type": "Point", "coordinates": [-123.26447, 42.02733]}, "properties": {"source": "mrds", "name": "Larkspur", "type": "Unknown", "weight": 0.5}}, {"type": "Feature", "geometry": {"type": "Point", "coordinates": [-123.28142, 42.02261]}, "properties": {"source": "mrds", "name": "Hinkle Lake Claim", "type": "Unknown", "weight": 0.5}}, {"type": "Feature", "geometry": {"type": "Point", "coordinates": [-123.28003, 42.04066]}, "properties": {"source": "mrds", "name": "Low Gap Claim", "type": "Unknown", "weight": 0.5}}, {"type": "Feature", "geometry": {"type": "Point", "coordinates": [-123.2692, 42.02483]}, "properties": {"source": "mrds", "name": "Manganese Prospect", "type": "Unknown", "weight": 0.5}}, {"type": "Feature", "geometry": {"type": "Point", "coordinates": [-123.37504, 42.1351]}, "properties": {"source": "mrds", "name": "Grayback Prospect", "type": "Unknown", "weight": 0.5}}, {"type": "Feature", "geometry": {"type": "Point", "coordinates": [-123.33143, 42.25065]}, "properties": {"source": "mrds", "name": "Sunny Mayday", "type": "Unknown", "weight": 0.5}}, {"type": "Feature", "geometry": {"type": "Point", "coordinates": [-122.9767, 42.59732]}, "properties": {"source": "mrds", "name": "Shamrock Manganese", "type": "Unknown", "weight": 3.0}}, {"type": "Feature", "geometry": {"type": "Point", "coordinates": [-122.78613, 42.17927]}, "properties": {"source": "mrds", "name": "Taylor", "type": "Unknown", "weight": 0.5}}, {"type": "Feature", "geometry": {"type": "Point", "coordinates": [-122.78669, 42.19233]}, "properties": {"source": "mrds", "name": "Burris Prospect", "type": "Unknown", "weight": 0.5}}, {"type": "Feature", "geometry": {"type": "Point", "coordinates": [-123.12782, 42.50454]}, "properties": {"source": "mrds", "name": "Woods Prospect", "type": "Unknown", "weight": 0.5}}, {"type": "Feature", "geometry": {"type": "Point", "coordinates": [-123.18282, 42.60482]}, "properties": {"source": "mrds", "name": "Starr Prospect", "type": "Unknown", "weight": 0.5}}, {"type": "Feature", "geometry": {"type": "Point", "coordinates": [-123.55809, 42.03621]}, "properties": {"source": "mrds", "name": "Jackpot #2", "type": "Unknown", "weight": 0.5}}, {"type": "Feature", "geometry": {"type": "Point", "coordinates": [-123.31754, 42.26982]}, "properties": {"source": "mrds", "name": "Wild Deer Prospect", "type": "Unknown", "weight": 1.0}}, {"type": "Feature", "geometry": {"type": "Point", "coordinates": [-123.81172, 42.21788]}, "properties": {"source": "mrds", "name": "Hilltop Prospect", "type": "Unknown", "weight": 1.0}}, {"type": "Feature", "geometry": {"type": "Point", "coordinates": [-122.60446, 42.49344]}, "properties": {"source": "mrds", "name": "Call of the Wild", "type": "Unknown", "weight": 0.5}}, {"type": "Feature", "geometry": {"type": "Point", "coordinates": [-123.21448, 42.42121]}, "properties": {"source": "mrds", "name": "Big Chief Property", "type": "Unknown", "weight": 1.0}}, {"type": "Feature", "geometry": {"type": "Point", "coordinates": [-123.20503, 42.12344]}, "properties": {"source": "mrds", "name": "Charlotte", "type": "Vein", "weight": 0.5}}, {"type": "Feature", "geometry": {"type": "Point", "coordinates": [-124.21711, 47.25034]}, "properties": {"source": "mrds", "name": "Supreme Claim", "type": "Unknown", "weight": 0.5}}, {"type": "Feature", "geometry": {"type": "Point", "coordinates": [-123.95268, 48.08062]}, "properties": {"source": "mrds", "name": "Sailor Boy Prospect", "type": "Unknown", "weight": 0.5}}, {"type": "Feature", "geometry": {"type": "Point", "coordinates": [-123.94935, 48.08312]}, "properties": {"source": "mrds", "name": "Red Bird Claim", "type": "Replacement", "weight": 0.5}}, {"type": "Feature", "geometry": {"type": "Point", "coordinates": [-124.24436, 48.10589]}, "properties": {"source": "mrds", "name": "Kathryn K. Prospect", "type": "100: Volcanogenic Mn, Olympic Peninsula", "weight": 0.5}}, {"type": "Feature", "geometry": {"type": "Point", "coordinates": [-124.19324, 48.09311]}, "properties": {"source": "mrds", "name": "Bear Creek Mine", "type": "Replacement", "weight": 1.0}}, {"type": "Feature", "geometry": {"type": "Point", "coordinates": [-124.02962, 48.0784]}, "properties": {"source": "mrds", "name": "Garrett Claim", "type": "Replacement", "weight": 0.5}}, {"type": "Feature", "geometry": {"type": "Point", "coordinates": [-124.01629, 48.08451]}, "properties": {"source": "mrds", "name": "Garrett No. 2 Claim", "type": "Replacement", "weight": 0.5}}, {"type": "Feature", "geometry": {"type": "Point", "coordinates": [-124.00296, 48.08368]}, "properties": {"source": "mrds", "name": "Midway Prospect", "type": "Replacement", "weight": 0.5}}, {"type": "Feature", "geometry": {"type": "Point", "coordinates": [-123.75211, 48.01729]}, "properties": {"source": "mrds", "name": "Bertha Prospect", "type": "Replacement", "weight": 0.5}}, {"type": "Feature", "geometry": {"type": "Point", "coordinates": [-124.06157, 48.06618]}, "properties": {"source": "mrds", "name": "Associated Claim", "type": "Unknown", "weight": 0.5}}, {"type": "Feature", "geometry": {"type": "Point", "coordinates": [-123.26679, 46.43313]}, "properties": {"source": "mrds", "name": "Chehalis River Prospect", "type": "97: Volcanogenic Mn", "weight": 0.5}}, {"type": "Feature", "geometry": {"type": "Point", "coordinates": [-124.04851, 48.07535]}, "properties": {"source": "mrds", "name": "Polaris Prospect", "type": "Replacement", "weight": 0.5}}, {"type": "Feature", "geometry": {"type": "Point", "coordinates": [-124.05379, 48.07618]}, "properties": {"source": "mrds", "name": "Eureka Creek", "type": "Unknown", "weight": 0.5}}, {"type": "Feature", "geometry": {"type": "Point", "coordinates": [-123.94462, 48.07729]}, "properties": {"source": "mrds", "name": "Old Gold Quartz", "type": "Unknown", "weight": 0.5}}, {"type": "Feature", "geometry": {"type": "Point", "coordinates": [-124.02073, 48.0834]}, "properties": {"source": "mrds", "name": "Littleton Mine", "type": "100: Volcanogenic Mn, Olympic Peninsula", "weight": 1.0}}, {"type": "Feature", "geometry": {"type": "Point", "coordinates": [-123.84295, 48.06896]}, "properties": {"source": "mrds", "name": "Bright Angel", "type": "Unknown", "weight": 1.0}}, {"type": "Feature", "geometry": {"type": "Point", "coordinates": [-124.11879, 48.0759]}, "properties": {"source": "mrds", "name": "Seattle", "type": "Unknown", "weight": 0.5}}, {"type": "Feature", "geometry": {"type": "Point", "coordinates": [-124.07518, 48.07507]}, "properties": {"source": "mrds", "name": "Section 23", "type": "Unknown", "weight": 0.5}}, {"type": "Feature", "geometry": {"type": "Point", "coordinates": [-124.0549, 48.07979]}, "properties": {"source": "mrds", "name": "Sun Rise Claim", "type": "Replacement", "weight": 0.5}}, {"type": "Feature", "geometry": {"type": "Point", "coordinates": [-123.98073, 48.04896]}, "properties": {"source": "mrds", "name": "Three Musketeers", "type": "Unknown", "weight": 0.5}}, {"type": "Feature", "geometry": {"type": "Point", "coordinates": [-124.1888, 48.08562]}, "properties": {"source": "mrds", "name": "Victor Mine", "type": "100: Volcanogenic Mn, Olympic Peninsula", "weight": 1.0}}, {"type": "Feature", "geometry": {"type": "Point", "coordinates": [-123.75211, 48.01729]}, "properties": {"source": "mrds", "name": "Lakeview Claim", "type": "Replacement", "weight": 0.5}}, {"type": "Feature", "geometry": {"type": "Point", "coordinates": [-123.75211, 48.01729]}, "properties": {"source": "mrds", "name": "Victory Claim", "type": "Replacement", "weight": 0.5}}, {"type": "Feature", "geometry": {"type": "Point", "coordinates": [-124.04851, 48.07979]}, "properties": {"source": "mrds", "name": "Madeline Claim", "type": "100: Volcanogenic Mn, Olympic Peninsula", "weight": 0.5}}, {"type": "Feature", "geometry": {"type": "Point", "coordinates": [-123.48516, 47.9809]}, "properties": {"source": "mrds", "name": "Broken Shovel Claim", "type": "Replacement", "weight": 0.5}}, {"type": "Feature", "geometry": {"type": "Point", "coordinates": [-123.49238, 47.99229]}, "properties": {"source": "mrds", "name": "Ella Claim", "type": "Replacement", "weight": 0.5}}, {"type": "Feature", "geometry": {"type": "Point", "coordinates": [-123.49516, 47.98896]}, "properties": {"source": "mrds", "name": "F. and L. Claim", "type": "Replacement", "weight": 0.5}}, {"type": "Feature", "geometry": {"type": "Point", "coordinates": [-123.5021, 48.00785]}, "properties": {"source": "mrds", "name": "Hurricane Claim", "type": "100: Volcanogenic Mn, Olympic Peninsula", "weight": 1.0}}, {"type": "Feature", "geometry": {"type": "Point", "coordinates": [-123.72572, 48.04173]}, "properties": {"source": "mrds", "name": "Cedar Claim", "type": "Replacement", "weight": 0.5}}, {"type": "Feature", "geometry": {"type": "Point", "coordinates": [-123.48516, 47.9809]}, "properties": {"source": "mrds", "name": "Idaho Claim", "type": "Replacement", "weight": 0.5}}, {"type": "Feature", "geometry": {"type": "Point", "coordinates": [-123.66572, 48.06007]}, "properties": {"source": "mrds", "name": "Hemlock Claim", "type": "Replacement", "weight": 0.5}}, {"type": "Feature", "geometry": {"type": "Point", "coordinates": [-123.51988, 47.9934]}, "properties": {"source": "mrds", "name": "Chappie Claim", "type": "Replacement", "weight": 0.5}}, {"type": "Feature", "geometry": {"type": "Point", "coordinates": [-123.91407, 48.07201]}, "properties": {"source": "mrds", "name": "Blue Ox Prospect", "type": "Replacement", "weight": 0.5}}, {"type": "Feature", "geometry": {"type": "Point", "coordinates": [-123.66572, 48.06007]}, "properties": {"source": "mrds", "name": "Thompson Claim", "type": "100: Volcanogenic Mn, Olympic Peninsula", "weight": 0.5}}, {"type": "Feature", "geometry": {"type": "Point", "coordinates": [-123.89657, 48.07201]}, "properties": {"source": "mrds", "name": "Handy Prospect", "type": "Replacement", "weight": 0.5}}, {"type": "Feature", "geometry": {"type": "Point", "coordinates": [-123.74295, 48.01785]}, "properties": {"source": "mrds", "name": "Mark Twain Claim", "type": "Replacement", "weight": 0.5}}, {"type": "Feature", "geometry": {"type": "Point", "coordinates": [-124.04712, 48.06646]}, "properties": {"source": "mrds", "name": "Pyrolusite No. 4 Claim", "type": "Replacement", "weight": 0.5}}, {"type": "Feature", "geometry": {"type": "Point", "coordinates": [-123.73934, 48.05979]}, "properties": {"source": "mrds", "name": "Storm King", "type": "Replacement", "weight": 0.5}}, {"type": "Feature", "geometry": {"type": "Point", "coordinates": [-123.51738, 47.9934]}, "properties": {"source": "mrds", "name": "Whistler Flats South", "type": "Replacement", "weight": 0.5}}, {"type": "Feature", "geometry": {"type": "Point", "coordinates": [-123.51877, 47.9934]}, "properties": {"source": "mrds", "name": "Whistler Flats Southwest", "type": "Replacement", "weight": 0.5}}, {"type": "Feature", "geometry": {"type": "Point", "coordinates": [-124.32241, 48.15867]}, "properties": {"source": "mrds", "name": "Ellis Claim", "type": "Replacement", "weight": 0.5}}, {"type": "Feature", "geometry": {"type": "Point", "coordinates": [-124.30741, 48.14895]}, "properties": {"source": "mrds", "name": "Lot No 5. 182 Prospects", "type": "Replacement", "weight": 0.5}}, {"type": "Feature", "geometry": {"type": "Point", "coordinates": [-124.30769, 48.14784]}, "properties": {"source": "mrds", "name": "B Creek Claim", "type": "Replacement", "weight": 0.5}}, {"type": "Feature", "geometry": {"type": "Point", "coordinates": [-123.32682, 47.5034]}, "properties": {"source": "mrds", "name": "Triple Trip Prospect", "type": "100: Volcanogenic Mn, Olympic Peninsula", "weight": 1.0}}, {"type": "Feature", "geometry": {"type": "Point", "coordinates": [-122.61432, 48.4473]}, "properties": {"source": "mrds", "name": "Mountain Home Claim", "type": "100: Volcanogenic Mn, Olympic Peninsula", "weight": 0.5}}, {"type": "Feature", "geometry": {"type": "Point", "coordinates": [-123.86099, 47.37729]}, "properties": {"source": "mrds", "name": "Cook Creek", "type": "Replacement", "weight": 0.5}}, {"type": "Feature", "geometry": {"type": "Point", "coordinates": [-123.85238, 47.37951]}, "properties": {"source": "mrds", "name": "East Cook Creek", "type": "Replacement", "weight": 0.5}}, {"type": "Feature", "geometry": {"type": "Point", "coordinates": [-123.87655, 47.36146]}, "properties": {"source": "mrds", "name": "Antlers Claim", "type": "Replacement", "weight": 0.5}}, {"type": "Feature", "geometry": {"type": "Point", "coordinates": [-123.87766, 47.37312]}, "properties": {"source": "mrds", "name": "Black Wonder Claim", "type": "Replacement", "weight": 1.0}}, {"type": "Feature", "geometry": {"type": "Point", "coordinates": [-124.21711, 47.25034]}, "properties": {"source": "mrds", "name": "Superior Claim", "type": "Unknown", "weight": 0.5}}, {"type": "Feature", "geometry": {"type": "Point", "coordinates": [-123.85571, 47.37868]}, "properties": {"source": "mrds", "name": "Egge Claims", "type": "100: Volcanogenic Mn, Olympic Peninsula", "weight": 1.0}}, {"type": "Feature", "geometry": {"type": "Point", "coordinates": [-123.85127, 47.38562]}, "properties": {"source": "mrds", "name": "Esther-Irene", "type": "100: Volcanogenic Mn, Olympic Peninsula", "weight": 1.0}}, {"type": "Feature", "geometry": {"type": "Point", "coordinates": [-123.8496, 47.40646]}, "properties": {"source": "mrds", "name": "Fishel Claim", "type": "Replacement", "weight": 0.5}}, {"type": "Feature", "geometry": {"type": "Point", "coordinates": [-123.60126, 47.37035]}, "properties": {"source": "mrds", "name": "Fosberg Claim", "type": "Unknown", "weight": 0.5}}, {"type": "Feature", "geometry": {"type": "Point", "coordinates": [-123.62265, 47.3809]}, "properties": {"source": "mrds", "name": "Grays Harbor Title", "type": "Unknown", "weight": 0.5}}, {"type": "Feature", "geometry": {"type": "Point", "coordinates": [-123.6107, 47.38562]}, "properties": {"source": "mrds", "name": "W. H. Hopkinson Claim", "type": "Unknown", "weight": 0.5}}, {"type": "Feature", "geometry": {"type": "Point", "coordinates": [-123.8571, 47.37673]}, "properties": {"source": "mrds", "name": "Skunk-Cook Creek Divide Claim", "type": "Replacement", "weight": 0.5}}, {"type": "Feature", "geometry": {"type": "Point", "coordinates": [-123.87433, 47.37479]}, "properties": {"source": "mrds", "name": "Lizard Claim", "type": "Replacement", "weight": 1.0}}, {"type": "Feature", "geometry": {"type": "Point", "coordinates": [-124.21711, 47.25034]}, "properties": {"source": "mrds", "name": "Paramount Claim", "type": "Unknown", "weight": 0.5}}, {"type": "Feature", "geometry": {"type": "Point", "coordinates": [-123.87405, 47.37229]}, "properties": {"source": "mrds", "name": "Pioneer Claim", "type": "Replacement", "weight": 0.5}}, {"type": "Feature", "geometry": {"type": "Point", "coordinates": [-123.62376, 47.36757]}, "properties": {"source": "mrds", "name": "Polson Claim", "type": "Unknown", "weight": 0.5}}, {"type": "Feature", "geometry": {"type": "Point", "coordinates": [-123.60126, 47.37035]}, "properties": {"source": "mrds", "name": "Ralfson Claim", "type": "Unknown", "weight": 0.5}}, {"type": "Feature", "geometry": {"type": "Point", "coordinates": [-123.62265, 47.39535]}, "properties": {"source": "mrds", "name": "Robinson Claim", "type": "Unknown", "weight": 0.5}}, {"type": "Feature", "geometry": {"type": "Point", "coordinates": [-123.87766, 47.37257]}, "properties": {"source": "mrds", "name": "Skunk Creek No. 19 Claim", "type": "100: Volcanogenic Mn, Olympic Peninsula", "weight": 1.0}}, {"type": "Feature", "geometry": {"type": "Point", "coordinates": [-123.87849, 47.3609]}, "properties": {"source": "mrds", "name": "Stevens Creek No. 2 Claim", "type": "Replacement", "weight": 0.5}}, {"type": "Feature", "geometry": {"type": "Point", "coordinates": [-123.8771, 47.35868]}, "properties": {"source": "mrds", "name": "Stevens Creek No. 1 Claim", "type": "Replacement", "weight": 1.0}}, {"type": "Feature", "geometry": {"type": "Point", "coordinates": [-123.55848, 47.46673]}, "properties": {"source": "mrds", "name": "Wynoochee", "type": "Replacement", "weight": 0.5}}, {"type": "Feature", "geometry": {"type": "Point", "coordinates": [-123.00792, 47.63286]}, "properties": {"source": "mrds", "name": "Albino Rodriquez", "type": "Replacement", "weight": 0.5}}, {"type": "Feature", "geometry": {"type": "Point", "coordinates": [-123.07847, 47.68424]}, "properties": {"source": "mrds", "name": "Duckabush River", "type": "Unknown", "weight": 0.5}}, {"type": "Feature", "geometry": {"type": "Point", "coordinates": [-123.01181, 47.73924]}, "properties": {"source": "mrds", "name": "Elkhorn Group", "type": "100: Volcanogenic Mn, Olympic Peninsula", "weight": 1.0}}, {"type": "Feature", "geometry": {"type": "Point", "coordinates": [-123.87933, 47.3634]}, "properties": {"source": "mrds", "name": "Stevens Creek No. 6 Claim", "type": "Replacement", "weight": 0.5}}, {"type": "Feature", "geometry": {"type": "Point", "coordinates": [-123.00514, 47.71036]}, "properties": {"source": "mrds", "name": "Lucky Creek Claim", "type": "Replacement", "weight": 0.5}}, {"type": "Feature", "geometry": {"type": "Point", "coordinates": [-123.36182, 47.80062]}, "properties": {"source": "mrds", "name": "Mount Claywood", "type": "Replacement", "weight": 0.5}}, {"type": "Feature", "geometry": {"type": "Point", "coordinates": [-123.15042, 47.61397]}, "properties": {"source": "mrds", "name": "North Pole Quartz Claim", "type": "Replacement", "weight": 0.5}}, {"type": "Feature", "geometry": {"type": "Point", "coordinates": [-123.34376, 47.49923]}, "properties": {"source": "mrds", "name": "Apex", "type": "Unknown", "weight": 0.5}}, {"type": "Feature", "geometry": {"type": "Point", "coordinates": [-123.34765, 47.57646]}, "properties": {"source": "mrds", "name": "Arkansas Traveler", "type": "Unknown", "weight": 0.5}}, {"type": "Feature", "geometry": {"type": "Point", "coordinates": [-123.43987, 47.48896]}, "properties": {"source": "mrds", "name": "Bosnia Claim", "type": "Replacement", "weight": 0.5}}, {"type": "Feature", "geometry": {"type": "Point", "coordinates": [-123.3207, 47.50812]}, "properties": {"source": "mrds", "name": "Hi Hope Claims", "type": "Replacement", "weight": 0.5}}, {"type": "Feature", "geometry": {"type": "Point", "coordinates": [-123.43987, 47.48896]}, "properties": {"source": "mrds", "name": "India Claim", "type": "Replacement", "weight": 0.5}}, {"type": "Feature", "geometry": {"type": "Point", "coordinates": [-123.43932, 47.49423]}, "properties": {"source": "mrds", "name": "Jolly Jack Group", "type": "Replacement", "weight": 0.5}}, {"type": "Feature", "geometry": {"type": "Point", "coordinates": [-123.34265, 47.50368]}, "properties": {"source": "mrds", "name": "McKean Claim", "type": "Replacement", "weight": 1.0}}, {"type": "Feature", "geometry": {"type": "Point", "coordinates": [-123.33043, 47.51451]}, "properties": {"source": "mrds", "name": "Rose Aster Claim", "type": "Replacement", "weight": 0.5}}, {"type": "Feature", "geometry": {"type": "Point", "coordinates": [-123.31598, 47.50368]}, "properties": {"source": "mrds", "name": "Russian No. 1 Claim", "type": "Replacement", "weight": 0.5}}, {"type": "Feature", "geometry": {"type": "Point", "coordinates": [-123.33098, 47.56673]}, "properties": {"source": "mrds", "name": "Smith Claim", "type": "Replacement", "weight": 0.5}}, {"type": "Feature", "geometry": {"type": "Point", "coordinates": [-124.00546, 48.07951]}, "properties": {"source": "mrds", "name": "St. Regis No. 2 Claim", "type": "100: Volcanogenic Mn, Olympic Peninsula", "weight": 0.5}}, {"type": "Feature", "geometry": {"type": "Point", "coordinates": [-124.20324, 48.09172]}, "properties": {"source": "mrds", "name": "Bear Ridge", "type": "Unknown", "weight": 0.5}}, {"type": "Feature", "geometry": {"type": "Point", "coordinates": [-117.69598, 42.02321]}, "properties": {"source": "mrds", "name": "Mcdermitt Dendrite", "type": "Unknown", "weight": 1.0}}, {"type": "Feature", "geometry": {"type": "Point", "coordinates": [-124.36841, 43.21786]}, "properties": {"source": "mrds", "name": "Allen", "type": "Unknown", "weight": 0.5}}, {"type": "Feature", "geometry": {"type": "Point", "coordinates": [-124.00618, 43.02064]}, "properties": {"source": "mrds", "name": "Rookard Managanese Prospect", "type": "Unknown", "weight": 0.5}}, {"type": "Feature", "geometry": {"type": "Point", "coordinates": [-124.1109, 43.04481]}, "properties": {"source": "mrds", "name": "Guerin", "type": "Unknown", "weight": 0.5}}, {"type": "Feature", "geometry": {"type": "Point", "coordinates": [-124.40258, 42.96981]}, "properties": {"source": "mrds", "name": "Statsman", "type": "Unknown", "weight": 0.5}}, {"type": "Feature", "geometry": {"type": "Point", "coordinates": [-124.08868, 42.71537]}, "properties": {"source": "mrds", "name": "Iron Mountian", "type": "Unknown", "weight": 0.5}}, {"type": "Feature", "geometry": {"type": "Point", "coordinates": [-120.25526, 43.82206]}, "properties": {"source": "mrds", "name": "Hampton Butte", "type": "Unknown", "weight": 0.5}}, {"type": "Feature", "geometry": {"type": "Point", "coordinates": [-124.38563, 42.94925]}, "properties": {"source": "mrds", "name": "Mcadams", "type": "Unknown", "weight": 1.0}}, {"type": "Feature", "geometry": {"type": "Point", "coordinates": [-124.38897, 42.87953]}, "properties": {"source": "mrds", "name": "Adolphson & Nodine", "type": "Unknown", "weight": 0.5}}, {"type": "Feature", "geometry": {"type": "Point", "coordinates": [-124.20812, 42.77981]}, "properties": {"source": "mrds", "name": "Arch Rock", "type": "Unknown", "weight": 0.5}}, {"type": "Feature", "geometry": {"type": "Point", "coordinates": [-124.13867, 42.54648]}, "properties": {"source": "mrds", "name": "Manganese Prospect", "type": "Unknown", "weight": 0.5}}, {"type": "Feature", "geometry": {"type": "Point", "coordinates": [-124.17367, 42.46148]}, "properties": {"source": "mrds", "name": "Wild Horse Mtn", "type": "Unknown", "weight": 0.5}}, {"type": "Feature", "geometry": {"type": "Point", "coordinates": [-124.40979, 42.41453]}, "properties": {"source": "mrds", "name": "Leith Manganese", "type": "Unknown", "weight": 0.5}}, {"type": "Feature", "geometry": {"type": "Point", "coordinates": [-123.80894, 42.22621]}, "properties": {"source": "mrds", "name": "Hamaker Groups", "type": "Unknown", "weight": 0.5}}, {"type": "Feature", "geometry": {"type": "Point", "coordinates": [-122.9842, 42.60454]}, "properties": {"source": "mrds", "name": "Big Jim Prospect", "type": "Unknown", "weight": 0.5}}, {"type": "Feature", "geometry": {"type": "Point", "coordinates": [-123.0217, 42.3265]}, "properties": {"source": "mrds", "name": "Scott Manganese Prospect", "type": "Unknown", "weight": 0.5}}, {"type": "Feature", "geometry": {"type": "Point", "coordinates": [-122.80252, 42.13927]}, "properties": {"source": "mrds", "name": "Patrick Manganese", "type": "Unknown", "weight": 0.5}}, {"type": "Feature", "geometry": {"type": "Point", "coordinates": [-123.28782, 42.67371]}, "properties": {"source": "mrds", "name": "Old Crow", "type": "Unknown", "weight": 0.5}}, {"type": "Feature", "geometry": {"type": "Point", "coordinates": [-123.50893, 42.10871]}, "properties": {"source": "mrds", "name": "Buhler", "type": "Unknown", "weight": 0.5}}, {"type": "Feature", "geometry": {"type": "Point", "coordinates": [-122.63201, 44.7887]}, "properties": {"source": "mrds", "name": "Jaeger", "type": "Unknown", "weight": 0.5}}, {"type": "Feature", "geometry": {"type": "Point", "coordinates": [-123.3737, 44.91758]}, "properties": {"source": "mrds", "name": "Kingwell & Mc Manners Prospect", "type": "Unknown", "weight": 0.5}}, {"type": "Feature", "geometry": {"type": "Point", "coordinates": [-121.06169, 44.94622]}, "properties": {"source": "mrds", "name": "Axford Ranch", "type": "Unknown", "weight": 0.5}}, {"type": "Feature", "geometry": {"type": "Point", "coordinates": [-118.67716, 44.55096]}, "properties": {"source": "mrds", "name": "Smuggler", "type": "Unknown", "weight": 0.5}}, {"type": "Feature", "geometry": {"type": "Point", "coordinates": [-117.39249, 48.83597]}, "properties": {"source": "mrds", "name": "Sterling", "type": "Unknown", "weight": 0.5}}, {"type": "Feature", "geometry": {"type": "Point", "coordinates": [-124.00018, 48.09285]}, "properties": {"source": "mrds", "name": "Helen", "type": "Unknown", "weight": 0.5}}, {"type": "Feature", "geometry": {"type": "Point", "coordinates": [-123.5046, 48.00618]}, "properties": {"source": "mrds", "name": "Hurricane", "type": "Unknown", "weight": 0.5}}, {"type": "Feature", "geometry": {"type": "Point", "coordinates": [-124.01101, 48.0809]}, "properties": {"source": "mrds", "name": "Littleton", "type": "Unknown", "weight": 0.5}}, {"type": "Feature", "geometry": {"type": "Point", "coordinates": [-124.19324, 48.09311]}, "properties": {"source": "mrds", "name": "Victor", "type": "Unknown", "weight": 0.5}}, {"type": "Feature", "geometry": {"type": "Point", "coordinates": [-121.95902, 48.49675]}, "properties": {"source": "mrds", "name": "Hamilton", "type": "Unknown", "weight": 0.5}}, {"type": "Feature", "geometry": {"type": "Point", "coordinates": [-123.87405, 47.32646]}, "properties": {"source": "mrds", "name": "Burnt Peak", "type": "Unknown", "weight": 0.5}}, {"type": "Feature", "geometry": {"type": "Point", "coordinates": [-123.86238, 47.37507]}, "properties": {"source": "mrds", "name": "Egge", "type": "Unknown", "weight": 0.5}}, {"type": "Feature", "geometry": {"type": "Point", "coordinates": [-123.88099, 47.38173]}, "properties": {"source": "mrds", "name": "Esther-Irene", "type": "Unknown", "weight": 0.5}}, {"type": "Feature", "geometry": {"type": "Point", "coordinates": [-123.87821, 47.37229]}, "properties": {"source": "mrds", "name": "Skunk Creek No. 19", "type": "Unknown", "weight": 0.5}}, {"type": "Feature", "geometry": {"type": "Point", "coordinates": [-123.00124, 47.73813]}, "properties": {"source": "mrds", "name": "Elkhorn", "type": "Unknown", "weight": 0.5}}, {"type": "Feature", "geometry": {"type": "Point", "coordinates": [-123.32932, 47.53062]}, "properties": {"source": "mrds", "name": "Black Hump", "type": "Unknown", "weight": 0.5}}, {"type": "Feature", "geometry": {"type": "Point", "coordinates": [-119.02114, 48.15762]}, "properties": {"source": "mrds", "name": "Apache", "type": "Unknown", "weight": 1.0}}, {"type": "Feature", "geometry": {"type": "Point", "coordinates": [-116.8652, 44.78927]}, "properties": {"source": "mrds", "name": "Brownlee Manganese Prospect", "type": "Vein", "weight": 0.5}}, {"type": "Feature", "geometry": {"type": "Point", "coordinates": [-116.78269, 44.14707]}, "properties": {"source": "mrds", "name": "Sand Hollow Prospect", "type": "Sedimentary", "weight": 0.5}}, {"type": "Feature", "geometry": {"type": "Point", "coordinates": [-115.27986, 44.90018]}, "properties": {"source": "mrds", "name": "Monumental Summit Rare - Earth Prospect", "type": "Unknown", "weight": 0.5}}, {"type": "Feature", "geometry": {"type": "Point", "coordinates": [-113.58898, 43.5002]}, "properties": {"source": "mrds", "name": "Golden Chariot Mine", "type": "Unknown", "weight": 1.0}}, {"type": "Feature", "geometry": {"type": "Point", "coordinates": [-113.61758, 43.5016]}, "properties": {"source": "mrds", "name": "Silver Bell Mine", "type": "Unknown", "weight": 1.0}}, {"type": "Feature", "geometry": {"type": "Point", "coordinates": [-113.4726, 44.79629]}, "properties": {"source": "mrds", "name": "Elmira Mine", "type": "Unknown", "weight": 1.0}}, {"type": "Feature", "geometry": {"type": "Point", "coordinates": [-113.444, 44.78569]}, "properties": {"source": "mrds", "name": "Maryland Mine", "type": "Unknown", "weight": 1.0}}, {"type": "Feature", "geometry": {"type": "Point", "coordinates": [-113.4662, 44.79069]}, "properties": {"source": "mrds", "name": "Buckhorn Mine", "type": "Unknown", "weight": 1.0}}, {"type": "Feature", "geometry": {"type": "Point", "coordinates": [-111.43552, 42.1741]}, "properties": {"source": "mrds", "name": "Manganese Deposit", "type": "Unknown", "weight": 0.5}}, {"type": "Feature", "geometry": {"type": "Point", "coordinates": [-111.69942, 42.34409]}, "properties": {"source": "mrds", "name": "Idaho Manganese Mining Company Mine", "type": "Unknown", "weight": 1.0}}, {"type": "Feature", "geometry": {"type": "Point", "coordinates": [-111.72691, 42.32492]}, "properties": {"source": "mrds", "name": "Hot Spot Property", "type": "Replacement", "weight": 0.5}}, {"type": "Feature", "geometry": {"type": "Point", "coordinates": [-111.70641, 42.33302]}, "properties": {"source": "mrds", "name": "Mc Gregor Property", "type": "Replacement", "weight": 0.5}}, {"type": "Feature", "geometry": {"type": "Point", "coordinates": [-123.43932, 47.49423]}, "properties": {"source": "mrds", "name": "Widow Claim", "type": "Replacement", "weight": 0.5}}, {"type": "Feature", "geometry": {"type": "Point", "coordinates": [-122.35597, 48.52259]}, "properties": {"source": "mrds", "name": "Belleville Property", "type": "Unknown", "weight": 0.5}}, {"type": "Feature", "geometry": {"type": "Point", "coordinates": [-123.34626, 47.57423]}, "properties": {"source": "mrds", "name": "Black and White Mine", "type": "100: Volcanogenic Mn, Olympic Peninsula", "weight": 1.0}}, {"type": "Feature", "geometry": {"type": "Point", "coordinates": [-123.87349, 47.32479]}, "properties": {"source": "mrds", "name": "Burnt Peak Mine", "type": "100: Volcanogenic Mn, Olympic Peninsula", "weight": 1.0}}, {"type": "Feature", "geometry": {"type": "Point", "coordinates": [-124.20378, 47.25034]}, "properties": {"source": "mrds", "name": "Excelsior Claim", "type": "Replacement", "weight": 0.5}}, {"type": "Feature", "geometry": {"type": "Point", "coordinates": [-122.43959, 48.61759]}, "properties": {"source": "mrds", "name": "Samish Bay", "type": "Replacement", "weight": 0.5}}, {"type": "Feature", "geometry": {"type": "Point", "coordinates": [-123.62376, 47.3809]}, "properties": {"source": "mrds", "name": "A.E. Graham Claim", "type": "Unknown", "weight": 0.5}}, {"type": "Feature", "geometry": {"type": "Point", "coordinates": [-121.97235, 48.49842]}, "properties": {"source": "mrds", "name": "Hamilton Claims", "type": "Unknown", "weight": 1.0}}, {"type": "Feature", "geometry": {"type": "Point", "coordinates": [-124.08879, 48.07979]}, "properties": {"source": "mrds", "name": "Barbara Claim", "type": "Unknown", "weight": 0.5}}, {"type": "Feature", "geometry": {"type": "Point", "coordinates": [-124.0674, 48.07951]}, "properties": {"source": "mrds", "name": "Blue Eyes Claim", "type": "Replacement", "weight": 0.5}}, {"type": "Feature", "geometry": {"type": "Point", "coordinates": [-114.99763, 44.00489]}, "properties": {"source": "mrds", "name": "Manganese Deposit", "type": "Vein", "weight": 0.5}}, {"type": "Feature", "geometry": {"type": "Point", "coordinates": [-123.76045, 48.0209]}, "properties": {"source": "mrds", "name": "Aurora Ridge", "type": "Replacement", "weight": 0.5}}, {"type": "Feature", "geometry": {"type": "Point", "coordinates": [-123.96518, 48.08729]}, "properties": {"source": "mrds", "name": "Sunshine", "type": "Unknown", "weight": 0.5}}, {"type": "Feature", "geometry": {"type": "Point", "coordinates": [-123.53738, 47.9934]}, "properties": {"source": "mrds", "name": "Hurricane Hill Lookout", "type": "Replacement", "weight": 0.5}}, {"type": "Feature", "geometry": {"type": "Point", "coordinates": [-123.55988, 47.97618]}, "properties": {"source": "mrds", "name": "J and J and Sunset Claim", "type": "Replacement", "weight": 0.5}}, {"type": "Feature", "geometry": {"type": "Point", "coordinates": [-124.32297, 48.15422]}, "properties": {"source": "mrds", "name": "Bill Prospect", "type": "Replacement", "weight": 0.5}}, {"type": "Feature", "geometry": {"type": "Point", "coordinates": [-123.62265, 47.3809]}, "properties": {"source": "mrds", "name": "Hydman Claim", "type": "Unknown", "weight": 0.5}}, {"type": "Feature", "geometry": {"type": "Point", "coordinates": [-123.85544, 47.37062]}, "properties": {"source": "mrds", "name": "Richards Claim", "type": "Unknown", "weight": 0.5}}, {"type": "Feature", "geometry": {"type": "Point", "coordinates": [-123.62265, 47.39535]}, "properties": {"source": "mrds", "name": "Thomas Svendsen Claim", "type": "Unknown", "weight": 0.5}}, {"type": "Feature", "geometry": {"type": "Point", "coordinates": [-123.11903, 47.64174]}, "properties": {"source": "mrds", "name": "Black Hump", "type": "Unknown", "weight": 0.5}}, {"type": "Feature", "geometry": {"type": "Point", "coordinates": [-123.11098, 47.85063]}, "properties": {"source": "mrds", "name": "Tull City", "type": "Replacement", "weight": 0.5}}, {"type": "Feature", "geometry": {"type": "Point", "coordinates": [-123.45043, 47.48312]}, "properties": {"source": "mrds", "name": "Old Crow Claim", "type": "Replacement", "weight": 0.5}}, {"type": "Feature", "geometry": {"type": "Point", "coordinates": [-123.3457, 47.57507]}, "properties": {"source": "mrds", "name": "Black and White", "type": "Unknown", "weight": 0.5}}, {"type": "Feature", "geometry": {"type": "Point", "coordinates": [-123.32126, 47.50368]}, "properties": {"source": "mrds", "name": "Triple Trip", "type": "Unknown", "weight": 0.5}}, {"type": "Feature", "geometry": {"type": "Point", "coordinates": [-118.12389, 48.10652]}, "properties": {"source": "mrds", "name": "Read", "type": "Unknown", "weight": 0.5}}, {"type": "Feature", "geometry": {"type": "Point", "coordinates": [-116.32019, 44.87767]}, "properties": {"source": "mrds", "name": "Burnt Rock Prospect", "type": "Vein", "weight": 1.0}}, {"type": "Feature", "geometry": {"type": "Point", "coordinates": [-117.10381, 44.61516]}, "properties": {"source": "mrds", "name": "J. G. Hill Prospect", "type": "Vein", "weight": 0.5}}, {"type": "Feature", "geometry": {"type": "Point", "coordinates": [-117.04351, 44.69046]}, "properties": {"source": "mrds", "name": "Reilly Manganese Deposits Prospect", "type": "Unknown", "weight": 0.5}}, {"type": "Feature", "geometry": {"type": "Point", "coordinates": [-113.42479, 44.4824]}, "properties": {"source": "mrds", "name": "Roosevelt", "type": "Unknown", "weight": 1.0}}, {"type": "Feature", "geometry": {"type": "Point", "coordinates": [-119.14939, 43.84318]}, "properties": {"source": "mrds", "name": "Red Hill Manganese", "type": "Unknown", "weight": 0.5}}, {"type": "Feature", "geometry": {"type": "Point", "coordinates": [-124.44091, 42.86481]}, "properties": {"source": "mrds", "name": "Crystal Creek Manganese", "type": "Unknown", "weight": 0.5}}, {"type": "Feature", "geometry": {"type": "Point", "coordinates": [-124.04046, 48.07646]}, "properties": {"source": "mrds", "name": "June", "type": "100: Volcanogenic Mn, Olympic Peninsula", "weight": 0.5}}, {"type": "Feature", "geometry": {"type": "Point", "coordinates": [-123.71005, 42.44593]}, "properties": {"source": "mrds", "name": "Elkhorn Creek Manganese", "type": "Unknown", "weight": 0.5}}, {"type": "Feature", "geometry": {"type": "Point", "coordinates": [-123.09921, 42.55232]}, "properties": {"source": "mrds", "name": "Erickson Prospect", "type": "Unknown", "weight": 0.5}}, {"type": "Feature", "geometry": {"type": "Point", "coordinates": [-124.05518, 48.07979]}, "properties": {"source": "mrds", "name": "Pine Ridge Claim", "type": "Replacement", "weight": 0.5}}, {"type": "Feature", "geometry": {"type": "Point", "coordinates": [-123.48652, 46.6559]}, "properties": {"source": "mrds", "name": "Upper Skookum Claim", "type": "Replacement", "weight": 0.5}}, {"type": "Feature", "geometry": {"type": "Point", "coordinates": [-123.91685, 48.07646]}, "properties": {"source": "mrds", "name": "Daisy No. 2 and No. 3", "type": "Replacement", "weight": 0.5}}, {"type": "Feature", "geometry": {"type": "Point", "coordinates": [-124.30686, 48.15228]}, "properties": {"source": "mrds", "name": "Pysht Prospect", "type": "Replacement", "weight": 0.5}}, {"type": "Feature", "geometry": {"type": "Point", "coordinates": [-124.14518, 48.07451]}, "properties": {"source": "mrds", "name": "Lucky Strike Claim", "type": "Replacement", "weight": 0.5}}, {"type": "Feature", "geometry": {"type": "Point", "coordinates": [-123.1007, 47.84841]}, "properties": {"source": "mrds", "name": "Tubal Cain Property", "type": "Replacement", "weight": 0.5}}, {"type": "Feature", "geometry": {"type": "Point", "coordinates": [-123.87127, 47.3659]}, "properties": {"source": "mrds", "name": "Star Claim", "type": "Replacement", "weight": 0.5}}, {"type": "Feature", "geometry": {"type": "Point", "coordinates": [-123.32487, 47.50646]}, "properties": {"source": "mrds", "name": "Black Queen Claims", "type": "Replacement", "weight": 0.5}}, {"type": "Feature", "geometry": {"type": "Point", "coordinates": [-114.307, 43.46879]}, "properties": {"source": "mrds", "name": "Galena Gulch Prospect", "type": "Unknown", "weight": 0.5}}, {"type": "Feature", "geometry": {"type": "Point", "coordinates": [-114.99154, 44.60128]}, "properties": {"source": "mrds", "name": "Old Timer Prospect", "type": "Vein", "weight": 1.0}}, {"type": "Feature", "geometry": {"type": "Point", "coordinates": [-119.02031, 48.16123]}, "properties": {"source": "mrds", "name": "St. Paul", "type": "Vein", "weight": 1.0}}, {"type": "Feature", "geometry": {"type": "Point", "coordinates": [-117.53963, 44.53458]}, "properties": {"source": "mrds", "name": "Indiana Mine", "type": "Vein", "weight": 1.0}}, {"type": "Feature", "geometry": {"type": "Point", "coordinates": [-117.58408, 44.68736]}, "properties": {"source": "mrds", "name": "Lowgrade Claims", "type": "Unknown", "weight": 1.0}}, {"type": "Feature", "geometry": {"type": "Point", "coordinates": [-123.01725, 42.37233]}, "properties": {"source": "mrds", "name": "Alice Group", "type": "Unknown", "weight": 1.0}}, {"type": "Feature", "geometry": {"type": "Point", "coordinates": [-123.14558, 42.04455]}, "properties": {"source": "mrds", "name": "Moses & Collins Claims", "type": "Unknown", "weight": 1.0}}, {"type": "Feature", "geometry": {"type": "Point", "coordinates": [-123.99879, 48.08312]}, "properties": {"source": "mrds", "name": "Helen Mine", "type": "100: Volcanogenic Mn, Olympic Peninsula", "weight": 1.0}}, {"type": "Feature", "geometry": {"type": "Point", "coordinates": [-123.32932, 47.53062]}, "properties": {"source": "mrds", "name": "Black Hump Claim", "type": "100: Volcanogenic Mn, Olympic Peninsula", "weight": 1.0}}, {"type": "Feature", "geometry": {"type": "Point", "coordinates": [-119.55922, 48.43927]}, "properties": {"source": "mrds", "name": "Pogue Flat", "type": "Unknown", "weight": 1.0}}, {"type": "Feature", "geometry": {"type": "Point", "coordinates": [-117.05071, 44.67676]}, "properties": {"source": "mrds", "name": "Sturgill Creek Mine", "type": "Unknown", "weight": 1.0}}, {"type": "Feature", "geometry": {"type": "Point", "coordinates": [-112.00304, 42.61631]}, "properties": {"source": "mrds", "name": "Vanza Mine", "type": "Unknown", "weight": 1.0}}, {"type": "Feature", "geometry": {"type": "Point", "coordinates": [-113.62058, 43.5063]}, "properties": {"source": "mrds", "name": "Hub Group", "type": "Unknown", "weight": 1.0}}, {"type": "Feature", "geometry": {"type": "Point", "coordinates": [-123.34032, 42.20593]}, "properties": {"source": "mrds", "name": "Elder Manganese", "type": "Unknown", "weight": 3.0}}, {"type": "Feature", "geometry": {"type": "Point", "coordinates": [-118.97523, 44.34318]}, "properties": {"source": "mrds", "name": "Pitsburg 1-2", "type": "Unknown", "weight": 3.0}}, {"type": "Feature", "geometry": {"type": "Point", "coordinates": [-124.38786, 42.95814]}, "properties": {"source": "mrds", "name": "Mc Adams", "type": "Unknown", "weight": 3.0}}, {"type": "Feature", "geometry": {"type": "Point", "coordinates": [-123.47627, 47.99289]}, "properties": {"source": "mrds", "name": "Mount Angeles", "type": "Unknown", "weight": 0.5}}, {"type": "Feature", "geometry": {"type": "Point", "coordinates": [-111.70641, 42.33302]}, "properties": {"source": "mrds", "name": "Manganese Mine", "type": "Unknown", "weight": 1.0}}, {"type": "Feature", "geometry": {"type": "Point", "coordinates": [-116.42737, 43.74627]}, "properties": {"source": "mrds", "name": "Gold Dollar Mineral Claims", "type": "Unknown", "weight": 0.5}}, {"type": "Feature", "geometry": {"type": "Point", "coordinates": [-113.449, 44.95959]}, "properties": {"source": "mrds", "name": "Flying Eagle Prospect", "type": "Unknown", "weight": 1.0}}, {"type": "Feature", "geometry": {"type": "Point", "coordinates": [-115.91713, 47.63487]}, "properties": {"source": "mrds", "name": "Shoshone River", "type": "Unknown", "weight": 1.0}}, {"type": "Feature", "geometry": {"type": "Point", "coordinates": [-117.88463, 44.55516]}, "properties": {"source": "mrds", "name": "Blackout", "type": "Unknown", "weight": 1.0}}, {"type": "Feature", "geometry": {"type": "Point", "coordinates": [-118.26215, 44.74095]}, "properties": {"source": "mrds", "name": "Midnight", "type": "Unknown", "weight": 1.0}}, {"type": "Feature", "geometry": {"type": "Point", "coordinates": [-117.65133, 44.71766]}, "properties": {"source": "mrds", "name": "No Name Prospect", "type": "Unknown", "weight": 1.0}}, {"type": "Feature", "geometry": {"type": "Point", "coordinates": [-117.62963, 44.70066]}, "properties": {"source": "mrds", "name": "Utah Prospect", "type": "Unknown", "weight": 1.0}}, {"type": "Feature", "geometry": {"type": "Point", "coordinates": [-117.67793, 44.72406]}, "properties": {"source": "mrds", "name": "Black Caps Lode Claim", "type": "Unknown", "weight": 1.0}}, {"type": "Feature", "geometry": {"type": "Point", "coordinates": [-117.60683, 44.71176]}, "properties": {"source": "mrds", "name": "Manganese No. 5 Claim", "type": "Unknown", "weight": 1.0}}, {"type": "Feature", "geometry": {"type": "Point", "coordinates": [-124.13618, 42.67981]}, "properties": {"source": "mrds", "name": "Rock Creek No. 1", "type": "Unknown", "weight": 1.0}}, {"type": "Feature", "geometry": {"type": "Point", "coordinates": [-119.31828, 44.72924]}, "properties": {"source": "mrds", "name": "Unnamed Manganese Occurrence", "type": "Unknown", "weight": 0.5}}, {"type": "Feature", "geometry": {"type": "Point", "coordinates": [-117.67131, 44.00956]}, "properties": {"source": "mrds", "name": "Bully", "type": "Unknown", "weight": 1.0}}, {"type": "Feature", "geometry": {"type": "Point", "coordinates": [-124.34647, 42.24341]}, "properties": {"source": "mrds", "name": "Harden Brook Manganese", "type": "Unknown", "weight": 1.0}}, {"type": "Feature", "geometry": {"type": "Point", "coordinates": [-123.44055, 42.12482]}, "properties": {"source": "mrds", "name": "Ow Yuen Claims", "type": "Unknown", "weight": 1.0}}, {"type": "Feature", "geometry": {"type": "Point", "coordinates": [-122.34196, 44.23372]}, "properties": {"source": "mrds", "name": "Great Northern Mine", "type": "Unknown", "weight": 1.0}}, {"type": "Feature", "geometry": {"type": "Point", "coordinates": [-123.10755, 42.56012]}, "properties": {"source": "mrds", "name": "Lee Prospect", "type": "Unknown", "weight": 1.0}}, {"type": "Feature", "geometry": {"type": "Point", "coordinates": [-123.12785, 42.50452]}, "properties": {"source": "mrds", "name": "Woods Prospect", "type": "Unknown", "weight": 1.0}}, {"type": "Feature", "geometry": {"type": "Point", "coordinates": [-124.38588, 42.40561]}, "properties": {"source": "mrds", "name": "Smith Prospect", "type": "Unknown", "weight": 1.0}}, {"type": "Feature", "geometry": {"type": "Point", "coordinates": [-122.57923, 42.37373]}, "properties": {"source": "mrds", "name": "Tyrrell Mine", "type": "Unknown", "weight": 1.0}}, {"type": "Feature", "geometry": {"type": "Point", "coordinates": [-124.31618, 42.88341]}, "properties": {"source": "mrds", "name": "Roberts Prospect", "type": "Unknown", "weight": 1.0}}, {"type": "Feature", "geometry": {"type": "Point", "coordinates": [-122.98944, 42.42653]}, "properties": {"source": "mrds", "name": "Millionaire Mine", "type": "Unknown", "weight": 1.0}}, {"type": "Feature", "geometry": {"type": "Point", "coordinates": [-123.97819, 48.07949]}, "properties": {"source": "mrds", "name": "Lena", "type": "Unknown", "weight": 1.0}}, {"type": "Feature", "geometry": {"type": "Point", "coordinates": [-124.08299, 48.08259]}, "properties": {"source": "mrds", "name": "Red Bird Claim", "type": "Unknown", "weight": 0.5}}, {"type": "Feature", "geometry": {"type": "Point", "coordinates": [-123.87707, 47.37259]}, "properties": {"source": "mrds", "name": "Black Wonder", "type": "Unknown", "weight": 1.0}}, {"type": "Feature", "geometry": {"type": "Point", "coordinates": [-123.08456, 48.0481]}, "properties": {"source": "mrds", "name": "Olympic Peninsula Mn - 0530310200", "type": "Unknown", "weight": 1.0}}, {"type": "Feature", "geometry": {"type": "Point", "coordinates": [-124.00159, 48.08259]}, "properties": {"source": "mrds", "name": "Helen Mine", "type": "Unknown", "weight": 1.0}}, {"type": "Feature", "geometry": {"type": "Point", "coordinates": [-123.90129, 48.07869]}, "properties": {"source": "mrds", "name": "Blue Ox Claim", "type": "Unknown", "weight": 1.0}}, {"type": "Feature", "geometry": {"type": "Point", "coordinates": [-124.2541, 48.09558]}, "properties": {"source": "mrds", "name": "State Lease Mine", "type": "Unknown", "weight": 1.0}}, {"type": "Feature", "geometry": {"type": "Point", "coordinates": [-123.61736, 47.38729]}, "properties": {"source": "mrds", "name": "A.E. Graham", "type": "Unknown", "weight": 1.0}}, {"type": "Feature", "geometry": {"type": "Point", "coordinates": [-124.12489, 48.07649]}, "properties": {"source": "mrds", "name": "Seattle", "type": "Unknown", "weight": 1.0}}, {"type": "Feature", "geometry": {"type": "Point", "coordinates": [-124.3055, 48.15118]}, "properties": {"source": "mrds", "name": "Pysht Prospect", "type": "Unknown", "weight": 0.5}}, {"type": "Feature", "geometry": {"type": "Point", "coordinates": [-123.49847, 48.06669]}, "properties": {"source": "mrds", "name": "Lady Norma", "type": "Unknown", "weight": 1.0}}, {"type": "Feature", "geometry": {"type": "Point", "coordinates": [-123.12626, 47.7342]}, "properties": {"source": "mrds", "name": "Elkhorn", "type": "Unknown", "weight": 1.0}}, {"type": "Feature", "geometry": {"type": "Point", "coordinates": [-123.69708, 48.06369]}, "properties": {"source": "mrds", "name": "Storm King", "type": "Unknown", "weight": 1.0}}, {"type": "Feature", "geometry": {"type": "Point", "coordinates": [-123.64438, 48.01919]}, "properties": {"source": "mrds", "name": "Mark Twain Prospect", "type": "Unknown", "weight": 0.5}}, {"type": "Feature", "geometry": {"type": "Point", "coordinates": [-123.95409, 48.08479]}, "properties": {"source": "mrds", "name": "Sailor Boy", "type": "Unknown", "weight": 1.0}}, {"type": "Feature", "geometry": {"type": "Point", "coordinates": [-123.15295, 47.6201]}, "properties": {"source": "mrds", "name": "North Pole Quartz", "type": "Unknown", "weight": 0.5}}, {"type": "Feature", "geometry": {"type": "Point", "coordinates": [-124.05959, 48.07949]}, "properties": {"source": "mrds", "name": "Moon", "type": "Unknown", "weight": 1.0}}, {"type": "Feature", "geometry": {"type": "Point", "coordinates": [-124.3077, 48.14418]}, "properties": {"source": "mrds", "name": "Lot Nos. 1 and 2 Prospects", "type": "Unknown", "weight": 1.0}}, {"type": "Feature", "geometry": {"type": "Point", "coordinates": [-117.7555, 48.41345]}, "properties": {"source": "mrds", "name": "Iron Mountain Lode", "type": "Unknown", "weight": 0.5}}, {"type": "Feature", "geometry": {"type": "Point", "coordinates": [-121.95264, 48.50041]}, "properties": {"source": "mrds", "name": "Hamilton Iron Deposit", "type": "Unknown", "weight": 1.0}}, {"type": "Feature", "geometry": {"type": "Point", "coordinates": [-120.99288, 47.14342]}, "properties": {"source": "mrds", "name": "Denney", "type": "Unknown", "weight": 1.0}}, {"type": "Feature", "geometry": {"type": "Point", "coordinates": [-122.43906, 48.61791]}, "properties": {"source": "mrds", "name": "Samish Bay", "type": "Unknown", "weight": 0.5}}, {"type": "Feature", "geometry": {"type": "Point", "coordinates": [-123.30505, 42.67872]}, "properties": {"source": "mrds", "name": "Horseshoe Lode", "type": "Unknown", "weight": 1.0}}, {"type": "Feature", "geometry": {"type": "Point", "coordinates": [-111.15889, 42.10243]}, "properties": {"source": "mrds", "name": "Pine Gap No.1", "type": "Unknown", "weight": 1.0}}, {"type": "Feature", "geometry": {"type": "Point", "coordinates": [-111.4389, 42.14823]}, "properties": {"source": "mrds", "name": "Worm Creek Prospect", "type": "Unknown", "weight": 1.0}}, {"type": "Feature", "geometry": {"type": "Point", "coordinates": [-113.26009, 44.3918]}, "properties": {"source": "mrds", "name": "Colorado", "type": "Unknown", "weight": 0.5}}, {"type": "Feature", "geometry": {"type": "Point", "coordinates": [-113.36589, 44.71489]}, "properties": {"source": "mrds", "name": "New Eldorado Claims", "type": "Unknown", "weight": 0.5}}, {"type": "Feature", "geometry": {"type": "Point", "coordinates": [-116.78269, 44.14707]}, "properties": {"source": "mrds", "name": "Weiser Sand Hollow", "type": "Unknown", "weight": 1.0}}, {"type": "Feature", "geometry": {"type": "Point", "coordinates": [-115.45906, 44.89488]}, "properties": {"source": "mrds", "name": "Emma Group", "type": "Unknown", "weight": 0.5}}, {"type": "Feature", "geometry": {"type": "Point", "coordinates": [-113.42779, 44.4705]}, "properties": {"source": "mrds", "name": "Herbert Carlyle Prospect", "type": "Unknown", "weight": 1.0}}, {"type": "Feature", "geometry": {"type": "Point", "coordinates": [-122.99754, 42.37483]}, "properties": {"source": "mrds", "name": "Bailey Prospect", "type": "Unknown", "weight": 1.0}}, {"type": "Feature", "geometry": {"type": "Point", "coordinates": [-123.26444, 42.02733]}, "properties": {"source": "mrds", "name": "Larkspur Claim", "type": "Unknown", "weight": 0.5}}, {"type": "Feature", "geometry": {"type": "Point", "coordinates": [-123.51835, 42.12872]}, "properties": {"source": "mrds", "name": "Cannon & Connacher Prospect", "type": "Unknown", "weight": 1.0}}, {"type": "Feature", "geometry": {"type": "Point", "coordinates": [-124.11837, 42.50621]}, "properties": {"source": "mrds", "name": "Iron Hill Group", "type": "Unknown", "weight": 1.0}}, {"type": "Feature", "geometry": {"type": "Point", "coordinates": [-124.45509, 42.95291]}, "properties": {"source": "mrds", "name": "Newhouse Prospect", "type": "Unknown", "weight": 1.0}}, {"type": "Feature", "geometry": {"type": "Point", "coordinates": [-117.64463, 44.70986]}, "properties": {"source": "mrds", "name": "Manganese Prospect", "type": "Unknown", "weight": 1.0}}, {"type": "Feature", "geometry": {"type": "Point", "coordinates": [-123.28785, 42.67372]}, "properties": {"source": "mrds", "name": "Old Crow", "type": "Unknown", "weight": 1.0}}, {"type": "Feature", "geometry": {"type": "Point", "coordinates": [-122.60223, 42.34403]}, "properties": {"source": "mrds", "name": "Coon Creek Claims", "type": "Unknown", "weight": 1.0}}, {"type": "Feature", "geometry": {"type": "Point", "coordinates": [-123.49675, 42.07482]}, "properties": {"source": "mrds", "name": "June Group", "type": "Unknown", "weight": 1.0}}, {"type": "Feature", "geometry": {"type": "Point", "coordinates": [-123.49675, 42.05672]}, "properties": {"source": "mrds", "name": "Althouse-Run Gulch Placer", "type": "Unknown", "weight": 1.0}}, {"type": "Feature", "geometry": {"type": "Point", "coordinates": [-123.95006, 42.14512]}, "properties": {"source": "mrds", "name": "Chetco Lake Rhodonite", "type": "Unknown", "weight": 1.0}}, {"type": "Feature", "geometry": {"type": "Point", "coordinates": [-117.64493, 44.71796]}, "properties": {"source": "mrds", "name": "Black Beauty Claim", "type": "Unknown", "weight": 1.0}}, {"type": "Feature", "geometry": {"type": "Point", "coordinates": [-123.95556, 42.00422]}, "properties": {"source": "mrds", "name": "Black Bear Prospect", "type": "Unknown", "weight": 1.0}}, {"type": "Feature", "geometry": {"type": "Point", "coordinates": [-123.55426, 42.46652]}, "properties": {"source": "mrds", "name": "Geo Mcallister", "type": "Unknown", "weight": 0.5}}, {"type": "Feature", "geometry": {"type": "Point", "coordinates": [-123.81178, 43.21791]}, "properties": {"source": "mrds", "name": "Hilltop Prospect", "type": "Unknown", "weight": 1.0}}, {"type": "Feature", "geometry": {"type": "Point", "coordinates": [-118.12634, 44.40796]}, "properties": {"source": "mrds", "name": "Dern Property", "type": "Unknown", "weight": 1.0}}, {"type": "Feature", "geometry": {"type": "Point", "coordinates": [-117.48962, 44.65126]}, "properties": {"source": "mrds", "name": "Jetta Mae #1", "type": "Unknown", "weight": 1.0}}, {"type": "Feature", "geometry": {"type": "Point", "coordinates": [-123.44285, 42.12262]}, "properties": {"source": "mrds", "name": "Oregon Caves Prospect", "type": "Unknown", "weight": 1.0}}, {"type": "Feature", "geometry": {"type": "Point", "coordinates": [-123.25005, 42.67262]}, "properties": {"source": "mrds", "name": "Maynard-French", "type": "Unknown", "weight": 1.0}}, {"type": "Feature", "geometry": {"type": "Point", "coordinates": [-118.08494, 44.81065]}, "properties": {"source": "mrds", "name": "Grant", "type": "Unknown", "weight": 1.0}}, {"type": "Feature", "geometry": {"type": "Point", "coordinates": [-117.41602, 44.54126]}, "properties": {"source": "mrds", "name": "Prescott Prospect", "type": "Unknown", "weight": 1.0}}, {"type": "Feature", "geometry": {"type": "Point", "coordinates": [-124.36839, 43.2179]}, "properties": {"source": "mrds", "name": "Allens", "type": "Unknown", "weight": 0.5}}, {"type": "Feature", "geometry": {"type": "Point", "coordinates": [-123.87067, 47.36589]}, "properties": {"source": "mrds", "name": "Star", "type": "Unknown", "weight": 0.5}}, {"type": "Feature", "geometry": {"type": "Point", "coordinates": [-120.45947, 47.72652]}, "properties": {"source": "mrds", "name": "Indian Creek Manganese Claims", "type": "Unknown", "weight": 1.0}}, {"type": "Feature", "geometry": {"type": "Point", "coordinates": [-123.86707, 47.37759]}, "properties": {"source": "mrds", "name": "Black Gold", "type": "Unknown", "weight": 0.5}}, {"type": "Feature", "geometry": {"type": "Point", "coordinates": [-123.51657, 47.99699]}, "properties": {"source": "mrds", "name": "Whistler Flats Southwest", "type": "Unknown", "weight": 0.5}}, {"type": "Feature", "geometry": {"type": "Point", "coordinates": [-123.70128, 48.08589]}, "properties": {"source": "mrds", "name": "Fir", "type": "Unknown", "weight": 1.0}}, {"type": "Feature", "geometry": {"type": "Point", "coordinates": [-123.31876, 47.51089]}, "properties": {"source": "mrds", "name": "Hi Hope", "type": "Unknown", "weight": 1.0}}, {"type": "Feature", "geometry": {"type": "Point", "coordinates": [-118.91055, 48.77544]}, "properties": {"source": "mrds", "name": "Hermance Manganese Prospect", "type": "Unknown", "weight": 1.0}}, {"type": "Feature", "geometry": {"type": "Point", "coordinates": [-122.04124, 48.29201]}, "properties": {"source": "mrds", "name": "Cicero", "type": "Unknown", "weight": 1.0}}, {"type": "Feature", "geometry": {"type": "Point", "coordinates": [-123.88347, 47.38119]}, "properties": {"source": "mrds", "name": "Skunk Creek No. 35.", "type": "Unknown", "weight": 1.0}}, {"type": "Feature", "geometry": {"type": "Point", "coordinates": [-122.00844, 48.51791]}, "properties": {"source": "mrds", "name": "Katie", "type": "Unknown", "weight": 1.0}}, {"type": "Feature", "geometry": {"type": "Point", "coordinates": [-123.97909, 48.05259]}, "properties": {"source": "mrds", "name": "Three Musketeers", "type": "Unknown", "weight": 1.0}}, {"type": "Feature", "geometry": {"type": "Point", "coordinates": [-123.43686, 47.49169]}, "properties": {"source": "mrds", "name": "Steel Creek Prospect", "type": "Unknown", "weight": 1.0}}, {"type": "Feature", "geometry": {"type": "Point", "coordinates": [-120.60808, 47.84702]}, "properties": {"source": "mrds", "name": "Maverick Peak Deposit", "type": "Unknown", "weight": 1.0}}, {"type": "Feature", "geometry": {"type": "Point", "coordinates": [-124.12709, 48.07539]}, "properties": {"source": "mrds", "name": "Snider No. 1 Claim", "type": "Unknown", "weight": 1.0}}, {"type": "Feature", "geometry": {"type": "Point", "coordinates": [-123.34296, 47.49919]}, "properties": {"source": "mrds", "name": "Apex Prospect", "type": "Unknown", "weight": 1.0}}, {"type": "Feature", "geometry": {"type": "Point", "coordinates": [-124.12959, 48.07559]}, "properties": {"source": "mrds", "name": "Lookout Claim", "type": "Unknown", "weight": 0.5}}, {"type": "Feature", "geometry": {"type": "Point", "coordinates": [-123.73938, 48.06339]}, "properties": {"source": "mrds", "name": "Beans", "type": "Unknown", "weight": 0.5}}, {"type": "Feature", "geometry": {"type": "Point", "coordinates": [-124.3249, 48.15668]}, "properties": {"source": "mrds", "name": "Ellis Claim", "type": "Unknown", "weight": 1.0}}, {"type": "Feature", "geometry": {"type": "Point", "coordinates": [-119.54476, 48.44344]}, "properties": {"source": "mrds", "name": "Pogue Flat", "type": "Unknown", "weight": 1.0}}, {"type": "Feature", "geometry": {"type": "Point", "coordinates": [-124.02069, 48.08169]}, "properties": {"source": "mrds", "name": "Last Chance", "type": "Unknown", "weight": 1.0}}, {"type": "Feature", "geometry": {"type": "Point", "coordinates": [-119.02084, 48.15954]}, "properties": {"source": "mrds", "name": "St Paul", "type": "Unknown", "weight": 1.0}}, {"type": "Feature", "geometry": {"type": "Point", "coordinates": [-124.21708, 47.25648]}, "properties": {"source": "mrds", "name": "Paramont", "type": "Unknown", "weight": 1.0}}, {"type": "Feature", "geometry": {"type": "Point", "coordinates": [-124.3082, 48.14558]}, "properties": {"source": "mrds", "name": "B Creek Claim", "type": "Unknown", "weight": 1.0}}, {"type": "Feature", "geometry": {"type": "Point", "coordinates": [-123.88189, 48.06759]}, "properties": {"source": "mrds", "name": "Bright Angel", "type": "Unknown", "weight": 1.0}}, {"type": "Feature", "geometry": {"type": "Point", "coordinates": [-123.34956, 47.57669]}, "properties": {"source": "mrds", "name": "Arkansas Traveler", "type": "Unknown", "weight": 1.0}}, {"type": "Feature", "geometry": {"type": "Point", "coordinates": [-123.25733, 46.4323]}, "properties": {"source": "mrds", "name": "Chehalis River", "type": "Unknown", "weight": 1.0}}, {"type": "Feature", "geometry": {"type": "Point", "coordinates": [-117.6169, 48.41875]}, "properties": {"source": "mrds", "name": "Iron Mountain Manganese Prospect", "type": "Unknown", "weight": 0.5}}, {"type": "Feature", "geometry": {"type": "Point", "coordinates": [-124.02709, 48.08449]}, "properties": {"source": "mrds", "name": "Olympia Star", "type": "Unknown", "weight": 1.0}}, {"type": "Feature", "geometry": {"type": "Point", "coordinates": [-123.12235, 47.6423]}, "properties": {"source": "mrds", "name": "Black Hump", "type": "Unknown", "weight": 0.5}}, {"type": "Feature", "geometry": {"type": "Point", "coordinates": [-123.34145, 42.20762]}, "properties": {"source": "mrds", "name": "Elder Prospect", "type": "Unknown", "weight": 1.0}}, {"type": "Feature", "geometry": {"type": "Point", "coordinates": [-116.95107, 48.34626]}, "properties": {"source": "mrds", "name": "Lucky Lead Mine", "type": "Unknown", "weight": 1.0}}, {"type": "Feature", "geometry": {"type": "Point", "coordinates": [-112.00802, 42.61552]}, "properties": {"source": "mrds", "name": "Lava Hot Springs", "type": "Unknown", "weight": 1.0}}, {"type": "Feature", "geometry": {"type": "Point", "coordinates": [-111.99892, 42.61632]}, "properties": {"source": "mrds", "name": "Vanza Mine", "type": "Unknown", "weight": 1.0}}, {"type": "Feature", "geometry": {"type": "Point", "coordinates": [-116.16605, 48.17737]}, "properties": {"source": "mrds", "name": "Blair and Collins Lease", "type": "Unknown", "weight": 1.0}}, {"type": "Feature", "geometry": {"type": "Point", "coordinates": [-116.80157, 42.95298]}, "properties": {"source": "mrds", "name": "Big Boy Prospect", "type": "Unknown", "weight": 0.5}}, {"type": "Feature", "geometry": {"type": "Point", "coordinates": [-122.78673, 42.19233]}, "properties": {"source": "mrds", "name": "Burris Prospect", "type": "Unknown", "weight": 1.0}}, {"type": "Feature", "geometry": {"type": "Point", "coordinates": [-118.27545, 44.69545]}, "properties": {"source": "mrds", "name": "Hawes and Lafferty Manganese", "type": "Unknown", "weight": 1.0}}, {"type": "Feature", "geometry": {"type": "Point", "coordinates": [-119.14936, 43.84315]}, "properties": {"source": "mrds", "name": "Red Hill Manganese", "type": "Unknown", "weight": 1.0}}, {"type": "Feature", "geometry": {"type": "Point", "coordinates": [-122.84253, 42.18343]}, "properties": {"source": "mrds", "name": "Peters Prospect", "type": "Unknown", "weight": 1.0}}, {"type": "Feature", "geometry": {"type": "Point", "coordinates": [-118.97526, 44.34315]}, "properties": {"source": "mrds", "name": "Miller Mountain Mine", "type": "Unknown", "weight": 1.0}}, {"type": "Feature", "geometry": {"type": "Point", "coordinates": [-117.90043, 44.55066]}, "properties": {"source": "mrds", "name": "Gertie", "type": "Unknown", "weight": 1.0}}, {"type": "Feature", "geometry": {"type": "Point", "coordinates": [-123.56645, 42.01262]}, "properties": {"source": "mrds", "name": "Black Boy Prospect", "type": "Unknown", "weight": 1.0}}, {"type": "Feature", "geometry": {"type": "Point", "coordinates": [-122.61803, 42.46703]}, "properties": {"source": "mrds", "name": "Homestake Claim", "type": "Unknown", "weight": 1.0}}, {"type": "Feature", "geometry": {"type": "Point", "coordinates": [-122.80253, 42.13923]}, "properties": {"source": "mrds", "name": "Patrick Manganese", "type": "Unknown", "weight": 1.0}}, {"type": "Feature", "geometry": {"type": "Point", "coordinates": [-117.87713, 44.54956]}, "properties": {"source": "mrds", "name": "Pinky Prospect", "type": "Unknown", "weight": 1.0}}, {"type": "Feature", "geometry": {"type": "Point", "coordinates": [-123.22585, 42.36292]}, "properties": {"source": "mrds", "name": "First Hope", "type": "Unknown", "weight": 1.0}}, {"type": "Feature", "geometry": {"type": "Point", "coordinates": [-124.38649, 42.95621]}, "properties": {"source": "mrds", "name": "Mcadams Prospect", "type": "Unknown", "weight": 1.0}}, {"type": "Feature", "geometry": {"type": "Point", "coordinates": [-123.09925, 42.55232]}, "properties": {"source": "mrds", "name": "Erickson Prospect", "type": "Unknown", "weight": 1.0}}, {"type": "Feature", "geometry": {"type": "Point", "coordinates": [-124.23698, 42.77981]}, "properties": {"source": "mrds", "name": "Arch Rock Lode", "type": "Unknown", "weight": 0.5}}, {"type": "Feature", "geometry": {"type": "Point", "coordinates": [-118.26935, 44.71655]}, "properties": {"source": "mrds", "name": "Caps Lode Claim", "type": "Unknown", "weight": 1.0}}, {"type": "Feature", "geometry": {"type": "Point", "coordinates": [-124.43179, 42.87951]}, "properties": {"source": "mrds", "name": "Adolphson and Nodine", "type": "Unknown", "weight": 0.5}}, {"type": "Feature", "geometry": {"type": "Point", "coordinates": [-123.3706, 44.9223]}, "properties": {"source": "mrds", "name": "Dallas Prospect", "type": "Unknown", "weight": 0.5}}, {"type": "Feature", "geometry": {"type": "Point", "coordinates": [-122.08036, 44.82512]}, "properties": {"source": "mrds", "name": "Russell-Ritter Mine", "type": "Unknown", "weight": 1.0}}, {"type": "Feature", "geometry": {"type": "Point", "coordinates": [-123.87017, 47.37009]}, "properties": {"source": "mrds", "name": "Pioneer", "type": "Unknown", "weight": 1.0}}, {"type": "Feature", "geometry": {"type": "Point", "coordinates": [-121.98844, 48.50561]}, "properties": {"source": "mrds", "name": "Pittsburg", "type": "Unknown", "weight": 1.0}}, {"type": "Feature", "geometry": {"type": "Point", "coordinates": [-124.05549, 48.07339]}, "properties": {"source": "mrds", "name": "Pyrolusite No. 4 Claim", "type": "Unknown", "weight": 1.0}}, {"type": "Feature", "geometry": {"type": "Point", "coordinates": [-123.48457, 47.98089]}, "properties": {"source": "mrds", "name": "F & L Deposit", "type": "Unknown", "weight": 0.5}}, {"type": "Feature", "geometry": {"type": "Point", "coordinates": [-123.13206, 47.7381]}, "properties": {"source": "mrds", "name": "Upper West Ledge", "type": "Unknown", "weight": 1.0}}, {"type": "Feature", "geometry": {"type": "Point", "coordinates": [-123.51237, 47.99839]}, "properties": {"source": "mrds", "name": "Whistler Flats South", "type": "Unknown", "weight": 1.0}}, {"type": "Feature", "geometry": {"type": "Point", "coordinates": [-123.87067, 47.37479]}, "properties": {"source": "mrds", "name": "Lady Martha Claim", "type": "Unknown", "weight": 0.5}}, {"type": "Feature", "geometry": {"type": "Point", "coordinates": [-123.91379, 48.07669]}, "properties": {"source": "mrds", "name": "Charles G. Claim", "type": "Unknown", "weight": 1.0}}, {"type": "Feature", "geometry": {"type": "Point", "coordinates": [-123.87627, 47.35809]}, "properties": {"source": "mrds", "name": "Stevens Creek No. 1 Claim", "type": "Unknown", "weight": 1.0}}, {"type": "Feature", "geometry": {"type": "Point", "coordinates": [-123.18706, 47.9498]}, "properties": {"source": "mrds", "name": "O & O Manganese", "type": "Unknown", "weight": 1.0}}, {"type": "Feature", "geometry": {"type": "Point", "coordinates": [-123.08455, 47.6873]}, "properties": {"source": "mrds", "name": "Duckabush River", "type": "Unknown", "weight": 0.5}}, {"type": "Feature", "geometry": {"type": "Point", "coordinates": [-123.87067, 47.37369]}, "properties": {"source": "mrds", "name": "Lizard", "type": "Unknown", "weight": 1.0}}, {"type": "Feature", "geometry": {"type": "Point", "coordinates": [-123.70688, 48.06419]}, "properties": {"source": "mrds", "name": "Thompson Group", "type": "Unknown", "weight": 1.0}}, {"type": "Feature", "geometry": {"type": "Point", "coordinates": [-123.70848, 48.00839]}, "properties": {"source": "mrds", "name": "Victoria", "type": "Unknown", "weight": 1.0}}, {"type": "Feature", "geometry": {"type": "Point", "coordinates": [-124.2402, 48.09288]}, "properties": {"source": "mrds", "name": "Wild Cat", "type": "Unknown", "weight": 1.0}}, {"type": "Feature", "geometry": {"type": "Point", "coordinates": [-123.87907, 47.38309]}, "properties": {"source": "mrds", "name": "Esther-Irene", "type": "Unknown", "weight": 1.0}}, {"type": "Feature", "geometry": {"type": "Point", "coordinates": [-123.48377, 47.98149]}, "properties": {"source": "mrds", "name": "Broken Shovel Deposit", "type": "Unknown", "weight": 0.5}}, {"type": "Feature", "geometry": {"type": "Point", "coordinates": [-121.30678, 46.81232]}, "properties": {"source": "mrds", "name": "Bumping Lake Mineral Spring", "type": "Unknown", "weight": 3.0}}, {"type": "Feature", "geometry": {"type": "Point", "coordinates": [-122.25406, 48.94151]}, "properties": {"source": "mrds", "name": "Smith", "type": "Unknown", "weight": 1.0}}, {"type": "Feature", "geometry": {"type": "Point", "coordinates": [-122.60443, 42.49343]}, "properties": {"source": "mrds", "name": "Call of the Wild", "type": "Unknown", "weight": 1.0}}, {"type": "Feature", "geometry": {"type": "Point", "coordinates": [-116.6457, 44.89207]}, "properties": {"source": "mrds", "name": "Black Jack Nos. 1 & 2.", "type": "Unknown", "weight": 0.5}}, {"type": "Feature", "geometry": {"type": "Point", "coordinates": [-115.91541, 46.68267]}, "properties": {"source": "mrds", "name": "Black Dome Group", "type": "Unknown", "weight": 1.0}}, {"type": "Feature", "geometry": {"type": "Point", "coordinates": [-111.67274, 44.52711]}, "properties": {"source": "mrds", "name": "Tanner Manganese Prospect", "type": "Unknown", "weight": 1.0}}, {"type": "Feature", "geometry": {"type": "Point", "coordinates": [-114.307, 43.46879]}, "properties": {"source": "mrds", "name": "Galena Gulch Prospect", "type": "Unknown", "weight": 0.5}}, {"type": "Feature", "geometry": {"type": "Point", "coordinates": [-111.61111, 42.68132]}, "properties": {"source": "mrds", "name": "Hooper Spring", "type": "Unknown", "weight": 1.0}}, {"type": "Feature", "geometry": {"type": "Point", "coordinates": [-114.3173, 43.49049]}, "properties": {"source": "mrds", "name": "Rawhide 1, 2, and 3 Prospect", "type": "Unknown", "weight": 0.5}}, {"type": "Feature", "geometry": {"type": "Point", "coordinates": [-116.30713, 47.40986]}, "properties": {"source": "mrds", "name": "Black Diamond", "type": "Unknown", "weight": 1.0}}, {"type": "Feature", "geometry": {"type": "Point", "coordinates": [-115.94663, 47.65427]}, "properties": {"source": "mrds", "name": "Teffi Group Manganese Claims", "type": "Unknown", "weight": 1.0}}, {"type": "Feature", "geometry": {"type": "Point", "coordinates": [-117.49102, 44.66156]}, "properties": {"source": "mrds", "name": "Sunset Nos. 1 and 2 Claims", "type": "Unknown", "weight": 0.5}}, {"type": "Feature", "geometry": {"type": "Point", "coordinates": [-124.09618, 42.69371]}, "properties": {"source": "mrds", "name": "Fitzgerald Prospect", "type": "Unknown", "weight": 1.0}}, {"type": "Feature", "geometry": {"type": "Point", "coordinates": [-124.40259, 42.95701]}, "properties": {"source": "mrds", "name": "Statsman Manganese", "type": "Unknown", "weight": 0.5}}, {"type": "Feature", "geometry": {"type": "Point", "coordinates": [-117.31382, 44.66706]}, "properties": {"source": "mrds", "name": "Lady Group", "type": "Unknown", "weight": 1.0}}, {"type": "Feature", "geometry": {"type": "Point", "coordinates": [-124.10477, 42.55791]}, "properties": {"source": "mrds", "name": "Copper Canyon Prospect", "type": "Unknown", "weight": 1.0}}, {"type": "Feature", "geometry": {"type": "Point", "coordinates": [-124.08428, 42.71201]}, "properties": {"source": "mrds", "name": "Leep", "type": "Unknown", "weight": 1.0}}, {"type": "Feature", "geometry": {"type": "Point", "coordinates": [-117.59742, 44.70096]}, "properties": {"source": "mrds", "name": "Black Prince Claim", "type": "Unknown", "weight": 1.0}}, {"type": "Feature", "geometry": {"type": "Point", "coordinates": [-117.69823, 44.73176]}, "properties": {"source": "mrds", "name": "Anchora Leland No. 2 Claim", "type": "Unknown", "weight": 0.5}}, {"type": "Feature", "geometry": {"type": "Point", "coordinates": [-117.88163, 44.53626]}, "properties": {"source": "mrds", "name": "Blackout", "type": "Unknown", "weight": 1.0}}, {"type": "Feature", "geometry": {"type": "Point", "coordinates": [-123.01724, 42.37233]}, "properties": {"source": "mrds", "name": "Alice Group", "type": "Unknown", "weight": 1.0}}, {"type": "Feature", "geometry": {"type": "Point", "coordinates": [-123.11284, 42.50292]}, "properties": {"source": "mrds", "name": "Unnamed Manganese Prospect", "type": "Unknown", "weight": 1.0}}, {"type": "Feature", "geometry": {"type": "Point", "coordinates": [-122.77553, 42.18483]}, "properties": {"source": "mrds", "name": "Burdick Group", "type": "Unknown", "weight": 1.0}}, {"type": "Feature", "geometry": {"type": "Point", "coordinates": [-123.12114, 42.37952]}, "properties": {"source": "mrds", "name": "Big Buck Prospect", "type": "Unknown", "weight": 1.0}}, {"type": "Feature", "geometry": {"type": "Point", "coordinates": [-123.20504, 42.12343]}, "properties": {"source": "mrds", "name": "Charlotte", "type": "Unknown", "weight": 1.0}}, {"type": "Feature", "geometry": {"type": "Point", "coordinates": [-122.96084, 42.60952]}, "properties": {"source": "mrds", "name": "Evans Creek Prospect", "type": "Unknown", "weight": 1.0}}, {"type": "Feature", "geometry": {"type": "Point", "coordinates": [-122.96534, 42.60842]}, "properties": {"source": "mrds", "name": "Chisholm Claims", "type": "Unknown", "weight": 1.0}}, {"type": "Feature", "geometry": {"type": "Point", "coordinates": [-122.78613, 42.17923]}, "properties": {"source": "mrds", "name": "Taylor Prospect", "type": "Unknown", "weight": 1.0}}, {"type": "Feature", "geometry": {"type": "Point", "coordinates": [-122.58393, 42.36793]}, "properties": {"source": "mrds", "name": "Bush Ranch Manganese", "type": "Unknown", "weight": 1.0}}, {"type": "Feature", "geometry": {"type": "Point", "coordinates": [-118.67715, 44.55095]}, "properties": {"source": "mrds", "name": "Smuggler", "type": "Unknown", "weight": 1.0}}, {"type": "Feature", "geometry": {"type": "Point", "coordinates": [-124.06709, 48.07149]}, "properties": {"source": "mrds", "name": "Associated", "type": "Unknown", "weight": 1.0}}, {"type": "Feature", "geometry": {"type": "Point", "coordinates": [-124.07349, 48.06509]}, "properties": {"source": "mrds", "name": "Marvel Claim", "type": "Unknown", "weight": 0.5}}, {"type": "Feature", "geometry": {"type": "Point", "coordinates": [-123.96879, 48.07789]}, "properties": {"source": "mrds", "name": "Kay Prospect", "type": "Unknown", "weight": 0.5}}, {"type": "Feature", "geometry": {"type": "Point", "coordinates": [-124.1935, 48.08258]}, "properties": {"source": "mrds", "name": "Victory Mine", "type": "Unknown", "weight": 1.0}}, {"type": "Feature", "geometry": {"type": "Point", "coordinates": [-124.08319, 48.07539]}, "properties": {"source": "mrds", "name": "Barbara", "type": "Unknown", "weight": 1.0}}, {"type": "Feature", "geometry": {"type": "Point", "coordinates": [-123.94459, 48.07729]}, "properties": {"source": "mrds", "name": "Crescent Mine", "type": "Unknown", "weight": 1.0}}, {"type": "Feature", "geometry": {"type": "Point", "coordinates": [-123.62296, 47.39649]}, "properties": {"source": "mrds", "name": "Thomas Svendsen", "type": "Unknown", "weight": 1.0}}, {"type": "Feature", "geometry": {"type": "Point", "coordinates": [-123.60126, 47.38039]}, "properties": {"source": "mrds", "name": "Fossburg", "type": "Unknown", "weight": 1.0}}, {"type": "Feature", "geometry": {"type": "Point", "coordinates": [-123.61736, 47.38729]}, "properties": {"source": "mrds", "name": "Grays Harbor Title", "type": "Unknown", "weight": 1.0}}, {"type": "Feature", "geometry": {"type": "Point", "coordinates": [-123.49847, 48.00669]}, "properties": {"source": "mrds", "name": "Skookum Claim", "type": "Unknown", "weight": 1.0}}, {"type": "Feature", "geometry": {"type": "Point", "coordinates": [-124.01379, 48.08259]}, "properties": {"source": "mrds", "name": "Garrett No. 2 Claim", "type": "Unknown", "weight": 0.5}}, {"type": "Feature", "geometry": {"type": "Point", "coordinates": [-123.87817, 47.37059]}, "properties": {"source": "mrds", "name": "Skunk Creek No. 19 Mine", "type": "Unknown", "weight": 1.0}}, {"type": "Feature", "geometry": {"type": "Point", "coordinates": [-123.00405, 47.722]}, "properties": {"source": "mrds", "name": "Albino Rodriguez", "type": "Unknown", "weight": 0.5}}, {"type": "Feature", "geometry": {"type": "Point", "coordinates": [-123.87907, 47.36059]}, "properties": {"source": "mrds", "name": "Surprise", "type": "Unknown", "weight": 0.5}}, {"type": "Feature", "geometry": {"type": "Point", "coordinates": [-123.10816, 47.8537]}, "properties": {"source": "mrds", "name": "Tull City", "type": "Unknown", "weight": 0.5}}, {"type": "Feature", "geometry": {"type": "Point", "coordinates": [-123.31596, 47.50729]}, "properties": {"source": "mrds", "name": "Black Queen", "type": "Unknown", "weight": 1.0}}, {"type": "Feature", "geometry": {"type": "Point", "coordinates": [-123.10795, 47.7326]}, "properties": {"source": "mrds", "name": "Lower East Ledge", "type": "Unknown", "weight": 1.0}}, {"type": "Feature", "geometry": {"type": "Point", "coordinates": [-123.32626, 47.53039]}, "properties": {"source": "mrds", "name": "Black Hump", "type": "Unknown", "weight": 1.0}}, {"type": "Feature", "geometry": {"type": "Point", "coordinates": [-122.35935, 48.51901]}, "properties": {"source": "mrds", "name": "Belleville", "type": "Unknown", "weight": 1.0}}, {"type": "Feature", "geometry": {"type": "Point", "coordinates": [-123.43686, 47.49259]}, "properties": {"source": "mrds", "name": "Widow", "type": "Unknown", "weight": 1.0}}, {"type": "Feature", "geometry": {"type": "Point", "coordinates": [-117.9608, 47.99315]}, "properties": {"source": "mrds", "name": "Wellpint", "type": "Unknown", "weight": 1.0}}, {"type": "Feature", "geometry": {"type": "Point", "coordinates": [-123.36186, 47.80419]}, "properties": {"source": "mrds", "name": "Mount Claywood", "type": "Unknown", "weight": 0.5}}, {"type": "Feature", "geometry": {"type": "Point", "coordinates": [-111.70251, 42.33322]}, "properties": {"source": "mrds", "name": "Cleveland Mine", "type": "Unknown", "weight": 1.0}}, {"type": "Feature", "geometry": {"type": "Point", "coordinates": [-116.62214, 47.24266]}, "properties": {"source": "mrds", "name": "Decann Manganese Prospect", "type": "Unknown", "weight": 0.5}}, {"type": "Feature", "geometry": {"type": "Point", "coordinates": [-114.99763, 44.00489]}, "properties": {"source": "mrds", "name": "Manganese Deposit", "type": "Unknown", "weight": 1.0}}, {"type": "Feature", "geometry": {"type": "Point", "coordinates": [-117.08741, 44.65706]}, "properties": {"source": "mrds", "name": "Sheep Creek Manganese Property", "type": "Unknown", "weight": 0.5}}, {"type": "Feature", "geometry": {"type": "Point", "coordinates": [-117.61633, 44.69236]}, "properties": {"source": "mrds", "name": "Black Joe Mine", "type": "Unknown", "weight": 1.0}}, {"type": "Feature", "geometry": {"type": "Point", "coordinates": [-117.63493, 44.71426]}, "properties": {"source": "mrds", "name": "Black Bird Nos. 1 & 2 Claims", "type": "Unknown", "weight": 1.0}}, {"type": "Feature", "geometry": {"type": "Point", "coordinates": [-117.62293, 44.68876]}, "properties": {"source": "mrds", "name": "Jewell-Black Manganese Claims", "type": "Unknown", "weight": 1.0}}, {"type": "Feature", "geometry": {"type": "Point", "coordinates": [-118.26775, 44.70375]}, "properties": {"source": "mrds", "name": "O'Brien Manganese Prospect", "type": "Unknown", "weight": 1.0}}, {"type": "Feature", "geometry": {"type": "Point", "coordinates": [-117.60182, 44.68406]}, "properties": {"source": "mrds", "name": "Nitzlander Ranch", "type": "Unknown", "weight": 0.5}}, {"type": "Feature", "geometry": {"type": "Point", "coordinates": [-124.00618, 43.02061]}, "properties": {"source": "mrds", "name": "Rookard Manganese", "type": "Unknown", "weight": 1.0}}, {"type": "Feature", "geometry": {"type": "Point", "coordinates": [-123.11055, 42.95232]}, "properties": {"source": "mrds", "name": "Circle S Ranch", "type": "Unknown", "weight": 1.0}}, {"type": "Feature", "geometry": {"type": "Point", "coordinates": [-122.98424, 42.60452]}, "properties": {"source": "mrds", "name": "Big Jim Prospect", "type": "Unknown", "weight": 0.5}}, {"type": "Feature", "geometry": {"type": "Point", "coordinates": [-122.33196, 44.23152]}, "properties": {"source": "mrds", "name": "Cinderella Mine", "type": "Unknown", "weight": 1.0}}, {"type": "Feature", "geometry": {"type": "Point", "coordinates": [-124.34227, 42.21041]}, "properties": {"source": "mrds", "name": "Lawrence Manganese", "type": "Unknown", "weight": 0.5}}, {"type": "Feature", "geometry": {"type": "Point", "coordinates": [-122.72173, 42.54423]}, "properties": {"source": "mrds", "name": "Vestal Group", "type": "Unknown", "weight": 1.0}}, {"type": "Feature", "geometry": {"type": "Point", "coordinates": [-122.71445, 43.59342]}, "properties": {"source": "mrds", "name": "Walton Creek Prospect", "type": "Unknown", "weight": 1.0}}, {"type": "Feature", "geometry": {"type": "Point", "coordinates": [-124.32927, 42.14542]}, "properties": {"source": "mrds", "name": "Colgrove Prospect", "type": "Unknown", "weight": 1.0}}, {"type": "Feature", "geometry": {"type": "Point", "coordinates": [-121.06173, 44.94623]}, "properties": {"source": "mrds", "name": "Axford Ranch", "type": "Unknown", "weight": 0.5}}, {"type": "Feature", "geometry": {"type": "Point", "coordinates": [-124.16519, 48.06649]}, "properties": {"source": "mrds", "name": "Kate", "type": "Unknown", "weight": 1.0}}, {"type": "Feature", "geometry": {"type": "Point", "coordinates": [-124.1944, 48.08918]}, "properties": {"source": "mrds", "name": "Bear Creek Mine", "type": "Unknown", "weight": 1.0}}, {"type": "Feature", "geometry": {"type": "Point", "coordinates": [-124.01299, 48.08399]}, "properties": {"source": "mrds", "name": "St. Regis No. 1 Claim", "type": "Unknown", "weight": 1.0}}, {"type": "Feature", "geometry": {"type": "Point", "coordinates": [-124.04989, 48.07789]}, "properties": {"source": "mrds", "name": "Madeline Claim", "type": "Unknown", "weight": 1.0}}, {"type": "Feature", "geometry": {"type": "Point", "coordinates": [-123.69018, 48.04839]}, "properties": {"source": "mrds", "name": "Cedar Claim", "type": "Unknown", "weight": 1.0}},