{"type": "FeatureCollection", "features": [{"type": "Feature", "geometry": {"type": "Point", "coordinates": [-114.40091, 43.36656]}, "properties": {"source": "mrds", "name": "Rock Creek Placer", "type": "Placer", "weight": 0.5}}, {"type": "Feature", "geometry": {"type": "Point", "coordinates": [-114.51758, 43.36656]}, "properties": {"source": "mrds", "name": "Camp Creek Placer", "type": "Placer", "weight": 0.5}}, {"type": "Feature", "geometry": {"type": "Point", "coordinates": [-115.91763, 44.01655]}, "properties": {"source": "mrds", "name": "Columbite Mine", "type": "Unknown", "weight": 3.0}}, {"type": "Feature", "geometry": {"type": "Point", "coordinates": [-115.96288, 44.79767]}, "properties": {"source": "mrds", "name": "Paddy Flat Placer Deposit", "type": "Placer", "weight": 0.5}}, {"type": "Feature", "geometry": {"type": "Point", "coordinates": [-115.48428, 44.28321]}, "properties": {"source": "mrds", "name": "Big Meadow", "type": "Placer", "weight": 3.0}}, {"type": "Feature", "geometry": {"type": "Point", "coordinates": [-115.89846, 43.88408]}, "properties": {"source": "mrds", "name": "Old Boston Nos. 1, 3 and 4", "type": "Placer", "weight": 3.0}}, {"type": "Feature", "geometry": {"type": "Point", "coordinates": [-115.49262, 44.24349]}, "properties": {"source": "mrds", "name": "Gilt Edge", "type": "Placer", "weight": 0.5}}, {"type": "Feature", "geometry": {"type": "Point", "coordinates": [-115.47039, 44.27071]}, "properties": {"source": "mrds", "name": "Columbite", "type": "Placer", "weight": 0.5}}, {"type": "Feature", "geometry": {"type": "Point", "coordinates": [-115.46785, 44.27548]}, "properties": {"source": "mrds", "name": "Rainier", "type": "Placer", "weight": 0.5}}, {"type": "Feature", "geometry": {"type": "Point", "coordinates": [-115.46785, 44.27548]}, "properties": {"source": "mrds", "name": "Big Four and Big Four No. 2", "type": "Placer", "weight": 0.5}}, {"type": "Feature", "geometry": {"type": "Point", "coordinates": [-115.49345, 44.24294]}, "properties": {"source": "mrds", "name": "Little Brown Jug", "type": "Placer", "weight": 1.0}}, {"type": "Feature", "geometry": {"type": "Point", "coordinates": [-115.46345, 44.27488]}, "properties": {"source": "mrds", "name": "Samarskite", "type": "Placer", "weight": 1.0}}, {"type": "Feature", "geometry": {"type": "Point", "coordinates": [-115.88238, 45.22457]}, "properties": {"source": "mrds", "name": "Lucky Strike", "type": "Placer", "weight": 1.0}}, {"type": "Feature", "geometry": {"type": "Point", "coordinates": [-115.79128, 45.36017]}, "properties": {"source": "mrds", "name": "Union", "type": "Unknown", "weight": 0.5}}, {"type": "Feature", "geometry": {"type": "Point", "coordinates": [-115.78818, 45.35627]}, "properties": {"source": "mrds", "name": "Tonopah", "type": "Unknown", "weight": 1.0}}, {"type": "Feature", "geometry": {"type": "Point", "coordinates": [-115.79658, 45.34517]}, "properties": {"source": "mrds", "name": "Gold Dust", "type": "Unknown", "weight": 0.5}}, {"type": "Feature", "geometry": {"type": "Point", "coordinates": [-115.78988, 45.38177]}, "properties": {"source": "mrds", "name": "Goldfield", "type": "Unknown", "weight": 0.5}}, {"type": "Feature", "geometry": {"type": "Point", "coordinates": [-115.77878, 45.46317]}, "properties": {"source": "mrds", "name": "Paul", "type": "Unknown", "weight": 0.5}}, {"type": "Feature", "geometry": {"type": "Point", "coordinates": [-122.97899, 46.07202]}, "properties": {"source": "mrds", "name": "Bauxite Kalama-Rainer", "type": "Unknown", "weight": 0.5}}, {"type": "Feature", "geometry": {"type": "Point", "coordinates": [-122.98203, 45.68147]}, "properties": {"source": "mrds", "name": "Bauxite Dixie Mt", "type": "Unknown", "weight": 0.5}}, {"type": "Feature", "geometry": {"type": "Point", "coordinates": [-122.83453, 45.7498]}, "properties": {"source": "mrds", "name": "Bauxite Scapoose - St Helens", "type": "Unknown", "weight": 0.5}}, {"type": "Feature", "geometry": {"type": "Point", "coordinates": [-122.90231, 45.61147]}, "properties": {"source": "mrds", "name": "Bauxite Tualatin Mountains", "type": "Unknown", "weight": 0.5}}, {"type": "Feature", "geometry": {"type": "Point", "coordinates": [-123.07454, 45.7098]}, "properties": {"source": "mrds", "name": "Bauxite Red Flat Hill", "type": "Unknown", "weight": 0.5}}, {"type": "Feature", "geometry": {"type": "Point", "coordinates": [-123.16314, 45.35202]}, "properties": {"source": "mrds", "name": "Bauxite Yamhill", "type": "Unknown", "weight": 0.5}}, {"type": "Feature", "geometry": {"type": "Point", "coordinates": [-122.92675, 44.88398]}, "properties": {"source": "mrds", "name": "Bauxite Waldo Hills", "type": "Unknown", "weight": 0.5}}, {"type": "Feature", "geometry": {"type": "Point", "coordinates": [-123.08425, 44.9623]}, "properties": {"source": "mrds", "name": "Bauxite Chapman and Eola Hills", "type": "Unknown", "weight": 0.5}}, {"type": "Feature", "geometry": {"type": "Point", "coordinates": [-123.32004, 42.26176]}, "properties": {"source": "mrds", "name": "Pugh Soapstone", "type": "Unknown", "weight": 3.0}}, {"type": "Feature", "geometry": {"type": "Point", "coordinates": [-122.91677, 45.88869]}, "properties": {"source": "mrds", "name": "Bauxite Columbia County", "type": "Unknown", "weight": 0.5}}, {"type": "Feature", "geometry": {"type": "Point", "coordinates": [-123.0501, 45.67758]}, "properties": {"source": "mrds", "name": "Bauxite Pumpkin Ridge", "type": "Unknown", "weight": 0.5}}, {"type": "Feature", "geometry": {"type": "Point", "coordinates": [-117.60023, 46.47679]}, "properties": {"source": "mrds", "name": "Pomeroy", "type": "Stream Placer", "weight": 0.5}}, {"type": "Feature", "geometry": {"type": "Point", "coordinates": [-124.17488, 46.92701]}, "properties": {"source": "mrds", "name": "Point Brown", "type": "Beach Placer", "weight": 0.5}}, {"type": "Feature", "geometry": {"type": "Point", "coordinates": [-124.05043, 46.6434]}, "properties": {"source": "mrds", "name": "Leadbetter Point", "type": "Beach Placer", "weight": 0.5}}, {"type": "Feature", "geometry": {"type": "Point", "coordinates": [-124.03208, 46.49562]}, "properties": {"source": "mrds", "name": "Nahcotta", "type": "Beach Placer", "weight": 0.5}}, {"type": "Feature", "geometry": {"type": "Point", "coordinates": [-124.05264, 46.2834]}, "properties": {"source": "mrds", "name": "Fort Canby", "type": "Beach Placer", "weight": 0.5}}, {"type": "Feature", "geometry": {"type": "Point", "coordinates": [-124.6727, 47.98867]}, "properties": {"source": "mrds", "name": "Sunset Creek Placer", "type": "Beach Placer", "weight": 1.0}}, {"type": "Feature", "geometry": {"type": "Point", "coordinates": [-122.67089, 44.41509]}, "properties": {"source": "mrds", "name": "Foster", "type": "Stream Placer", "weight": 3.0}}, {"type": "Feature", "geometry": {"type": "Point", "coordinates": [-117.46158, 44.50542]}, "properties": {"source": "mrds", "name": "Durkee", "type": "Stream Placer", "weight": 3.0}}, {"type": "Feature", "geometry": {"type": "Point", "coordinates": [-112.38914, 43.18551]}, "properties": {"source": "mrds", "name": "Welch Ground, and Gold Point and Eagle Bend", "type": "Stream Placer", "weight": 3.0}}, {"type": "Feature", "geometry": {"type": "Point", "coordinates": [-115.4751, 42.92545]}, "properties": {"source": "mrds", "name": "Frank E. Wilson Ranch", "type": "Stream Placer", "weight": 1.0}}, {"type": "Feature", "geometry": {"type": "Point", "coordinates": [-115.25703, 42.96239]}, "properties": {"source": "mrds", "name": "Snake River Placer", "type": "Stream Placer", "weight": 1.0}}, {"type": "Feature", "geometry": {"type": "Point", "coordinates": [-115.89265, 45.2332]}, "properties": {"source": "mrds", "name": "Ruby Placer", "type": "Placer", "weight": 0.5}}, {"type": "Feature", "geometry": {"type": "Point", "coordinates": [-119.58588, 48.48289]}, "properties": {"source": "mrds", "name": "Johnson Creek", "type": "Unknown", "weight": 0.5}}, {"type": "Feature", "geometry": {"type": "Point", "coordinates": [-118.0336, 48.08707]}, "properties": {"source": "mrds", "name": "Cf Allen", "type": "Unknown", "weight": 0.5}}, {"type": "Feature", "geometry": {"type": "Point", "coordinates": [-124.40118, 42.48537]}, "properties": {"source": "mrds", "name": "Collins", "type": "Beach Placer", "weight": 1.0}}, {"type": "Feature", "geometry": {"type": "Point", "coordinates": [-123.91366, 42.31093]}, "properties": {"source": "mrds", "name": "Tincup Group", "type": "Unknown", "weight": 0.5}}, {"type": "Feature", "geometry": {"type": "Point", "coordinates": [-123.01197, 42.4515]}, "properties": {"source": "mrds", "name": "Victory Group", "type": "Unknown", "weight": 0.5}}, {"type": "Feature", "geometry": {"type": "Point", "coordinates": [-123.31374, 47.01341]}, "properties": {"source": "mrds", "name": "Elma", "type": "Fossil Placer", "weight": 1.0}}, {"type": "Feature", "geometry": {"type": "Point", "coordinates": [-124.6777, 48.0145]}, "properties": {"source": "mrds", "name": "Cedar Creek Placer", "type": "Beach Placer", "weight": 1.0}}, {"type": "Feature", "geometry": {"type": "Point", "coordinates": [-122.91789, 46.49536]}, "properties": {"source": "mrds", "name": "Winlock Placer Prospect", "type": "Placer", "weight": 0.5}}, {"type": "Feature", "geometry": {"type": "Point", "coordinates": [-124.06403, 46.30562]}, "properties": {"source": "mrds", "name": "Beards Hollow Placer", "type": "Beach Placer", "weight": 0.5}}, {"type": "Feature", "geometry": {"type": "Point", "coordinates": [-122.32145, 45.20537]}, "properties": {"source": "mrds", "name": "Clear Creek", "type": "Unknown", "weight": 0.5}}, {"type": "Feature", "geometry": {"type": "Point", "coordinates": [-119.05245, 44.45402]}, "properties": {"source": "mrds", "name": "Talc Boulder", "type": "Unknown", "weight": 1.0}}, {"type": "Feature", "geometry": {"type": "Point", "coordinates": [-119.0441, 43.19708]}, "properties": {"source": "mrds", "name": "Harney Lake Feldspar", "type": "Unknown", "weight": 0.5}}, {"type": "Feature", "geometry": {"type": "Point", "coordinates": [-121.88168, 42.86872]}, "properties": {"source": "mrds", "name": "Klamath Indian Reservation Placer", "type": "Unknown", "weight": 0.5}}, {"type": "Feature", "geometry": {"type": "Point", "coordinates": [-122.41006, 44.74314]}, "properties": {"source": "mrds", "name": "Smith-Butler", "type": "Unknown", "weight": 0.5}}, {"type": "Feature", "geometry": {"type": "Point", "coordinates": [-123.04952, 44.69425]}, "properties": {"source": "mrds", "name": "Smith-Butler", "type": "Unknown", "weight": 0.5}}, {"type": "Feature", "geometry": {"type": "Point", "coordinates": [-117.60074, 44.43792]}, "properties": {"source": "mrds", "name": "Timmons Talc", "type": "Unknown", "weight": 0.5}}, {"type": "Feature", "geometry": {"type": "Point", "coordinates": [-123.04425, 44.86231]}, "properties": {"source": "mrds", "name": "Bauxite Prospect", "type": "Unknown", "weight": 0.5}}, {"type": "Feature", "geometry": {"type": "Point", "coordinates": [-123.06091, 44.85564]}, "properties": {"source": "mrds", "name": "30-Acre Ranch", "type": "Unknown", "weight": 0.5}}, {"type": "Feature", "geometry": {"type": "Point", "coordinates": [-123.02202, 44.8312]}, "properties": {"source": "mrds", "name": "Entress Farm", "type": "Unknown", "weight": 0.5}}, {"type": "Feature", "geometry": {"type": "Point", "coordinates": [-123.92262, 45.55923]}, "properties": {"source": "mrds", "name": "Netarts", "type": "Unknown", "weight": 0.5}}, {"type": "Feature", "geometry": {"type": "Point", "coordinates": [-123.31374, 47.01341]}, "properties": {"source": "mrds", "name": "Elma", "type": "Fossil Placer", "weight": 0.5}}, {"type": "Feature", "geometry": {"type": "Point", "coordinates": [-121.38455, 48.53315]}, "properties": {"source": "mrds", "name": "Marblemount Area", "type": "Unknown", "weight": 0.5}}, {"type": "Feature", "geometry": {"type": "Point", "coordinates": [-117.00104, 46.99987]}, "properties": {"source": "mrds", "name": "Clay Deposit", "type": "Unknown", "weight": 0.5}}, {"type": "Feature", "geometry": {"type": "Point", "coordinates": [-117.25107, 47.54986]}, "properties": {"source": "mrds", "name": "Excelsior Clay Deposit", "type": "Unknown", "weight": 0.5}}, {"type": "Feature", "geometry": {"type": "Point", "coordinates": [-124.05815, 44.65813]}, "properties": {"source": "mrds", "name": "Big Creek-Yaquina Bay-Newport  Placer", "type": "Unknown", "weight": 0.5}}, {"type": "Feature", "geometry": {"type": "Point", "coordinates": [-124.41786, 43.08313]}, "properties": {"source": "mrds", "name": "Bandon Placer", "type": "Unknown", "weight": 3.0}}, {"type": "Feature", "geometry": {"type": "Point", "coordinates": [-124.00069, 46.21646]}, "properties": {"source": "mrds", "name": "Hammond-Mcgowan-Columbia Placer", "type": "Unknown", "weight": 0.5}}, {"type": "Feature", "geometry": {"type": "Point", "coordinates": [-123.08998, 45.93794]}, "properties": {"source": "mrds", "name": "Oregon Bauxite Deposit", "type": "Unknown", "weight": 0.5}}, {"type": "Feature", "geometry": {"type": "Point", "coordinates": [-122.59089, 44.89911]}, "properties": {"source": "mrds", "name": "Salem Bauxite  Deposit", "type": "Unknown", "weight": 0.5}}, {"type": "Feature", "geometry": {"type": "Point", "coordinates": [-115.785645, 45.360531]}, "properties": {"source": "usmin", "name": "", "type": "Prospect Pit", "weight": 1.0}}, {"type": "Feature", "geometry": {"type": "Point", "coordinates": [-123.04425, 44.84648]}, "properties": {"source": "mrds", "name": "Salem Hills Bauxite", "type": "Unknown", "weight": 0.5}}, {"type": "Feature", "geometry": {"type": "Point", "coordinates": [-115.75711, 46.35181]}, "properties": {"source": "mrds", "name": "Musselshell Creek Placer", "type": "Placer", "weight": 1.0}}, {"type": "Feature", "geometry": {"type": "Point", "coordinates": [-115.02375, 45.15798]}, "properties": {"source": "mrds", "name": "Coxey Creek Placer", "type": "Placer", "weight": 0.5}}, {"type": "Feature", "geometry": {"type": "Point", "coordinates": [-114.76564, 44.69798]}, "properties": {"source": "mrds", "name": "Falconberry Ranch Placer", "type": "Placer", "weight": 1.0}}, {"type": "Feature", "geometry": {"type": "Point", "coordinates": [-114.79734, 44.71408]}, "properties": {"source": "mrds", "name": "Biggs Ranch Placer", "type": "Placer", "weight": 0.5}}, {"type": "Feature", "geometry": {"type": "Point", "coordinates": [-114.92654, 44.27158]}, "properties": {"source": "mrds", "name": "Kelley Creek Placer", "type": "Placer", "weight": 1.0}}, {"type": "Feature", "geometry": {"type": "Point", "coordinates": [-114.67653, 44.24909]}, "properties": {"source": "mrds", "name": "The Great Centennial Placer", "type": "Placer", "weight": 1.0}}, {"type": "Feature", "geometry": {"type": "Point", "coordinates": [-114.6556, 44.2786]}, "properties": {"source": "mrds", "name": "Patricia Ann Occurrence", "type": "Unknown", "weight": 0.5}}, {"type": "Feature", "geometry": {"type": "Point", "coordinates": [-114.51563, 44.85268]}, "properties": {"source": "mrds", "name": "Morning Sun Lode", "type": "Unknown", "weight": 1.0}}, {"type": "Feature", "geometry": {"type": "Point", "coordinates": [-114.90373, 44.24268]}, "properties": {"source": "mrds", "name": "Joes Gulch Placer", "type": "Placer", "weight": 1.0}}, {"type": "Feature", "geometry": {"type": "Point", "coordinates": [-114.80033, 44.23739]}, "properties": {"source": "mrds", "name": "Rough Creek Placer", "type": "Placer", "weight": 1.0}}, {"type": "Feature", "geometry": {"type": "Point", "coordinates": [-114.85873, 44.24048]}, "properties": {"source": "mrds", "name": "Little Casino Creek Placer", "type": "Placer", "weight": 1.0}}, {"type": "Feature", "geometry": {"type": "Point", "coordinates": [-114.67173, 44.25129]}, "properties": {"source": "mrds", "name": "Robinson Bar Placer", "type": "Placer", "weight": 1.0}}, {"type": "Feature", "geometry": {"type": "Point", "coordinates": [-114.68513, 44.25069]}, "properties": {"source": "mrds", "name": "Taylor Placer", "type": "Placer", "weight": 1.0}}, {"type": "Feature", "geometry": {"type": "Point", "coordinates": [-114.84563, 44.11489]}, "properties": {"source": "mrds", "name": "Gold Creek Placer", "type": "Placer", "weight": 1.0}}, {"type": "Feature", "geometry": {"type": "Point", "coordinates": [-114.74873, 44.09799]}, "properties": {"source": "mrds", "name": "Pigtail Creek Placer", "type": "Placer", "weight": 1.0}}, {"type": "Feature", "geometry": {"type": "Point", "coordinates": [-115.00375, 45.13348]}, "properties": {"source": "mrds", "name": "John Vine Bar Placer", "type": "Placer", "weight": 0.5}}, {"type": "Feature", "geometry": {"type": "Point", "coordinates": [-114.93765, 45.12928]}, "properties": {"source": "mrds", "name": "Cabin Creek Bar Placer", "type": "Placer", "weight": 0.5}}, {"type": "Feature", "geometry": {"type": "Point", "coordinates": [-115.06314, 44.31568]}, "properties": {"source": "mrds", "name": "Valley Creek Placer", "type": "Placer", "weight": 1.0}}, {"type": "Feature", "geometry": {"type": "Point", "coordinates": [-115.069, 44.30821]}, "properties": {"source": "mrds", "name": "Meadow Creek Placer", "type": "Placer", "weight": 1.0}}, {"type": "Feature", "geometry": {"type": "Point", "coordinates": [-115.05984, 44.28928]}, "properties": {"source": "mrds", "name": "Elk Creek Placer", "type": "Placer", "weight": 1.0}}, {"type": "Feature", "geometry": {"type": "Point", "coordinates": [-114.92453, 44.23428]}, "properties": {"source": "mrds", "name": "Nip and Tuck Creek Placer", "type": "Placer", "weight": 1.0}}, {"type": "Feature", "geometry": {"type": "Point", "coordinates": [-114.84173, 44.26179]}, "properties": {"source": "mrds", "name": "Mormon Bend Placer", "type": "Placer", "weight": 1.0}}, {"type": "Feature", "geometry": {"type": "Point", "coordinates": [-114.64623, 44.24879]}, "properties": {"source": "mrds", "name": "Easy Bar Placer", "type": "Placer", "weight": 0.5}}, {"type": "Feature", "geometry": {"type": "Point", "coordinates": [-114.63513, 44.25239]}, "properties": {"source": "mrds", "name": "Treon Creek Bar Placer", "type": "Placer", "weight": 1.0}}, {"type": "Feature", "geometry": {"type": "Point", "coordinates": [-114.59532, 44.25159]}, "properties": {"source": "mrds", "name": "Burnt Bar Placer", "type": "Placer", "weight": 1.0}}, {"type": "Feature", "geometry": {"type": "Point", "coordinates": [-114.54782, 44.25299]}, "properties": {"source": "mrds", "name": "Mill Creek Bar Placer", "type": "Placer", "weight": 0.5}}, {"type": "Feature", "geometry": {"type": "Point", "coordinates": [-114.60262, 44.19879]}, "properties": {"source": "mrds", "name": "Slate Creek Placer", "type": "Placer", "weight": 1.0}}, {"type": "Feature", "geometry": {"type": "Point", "coordinates": [-114.84455, 45.10208]}, "properties": {"source": "mrds", "name": "Point Placer", "type": "Placer", "weight": 0.5}}, {"type": "Feature", "geometry": {"type": "Point", "coordinates": [-114.82675, 45.10348]}, "properties": {"source": "mrds", "name": "Cougar Creek Placer", "type": "Placer", "weight": 0.5}}, {"type": "Feature", "geometry": {"type": "Point", "coordinates": [-115.39037, 45.72797]}, "properties": {"source": "mrds", "name": "Tyee Placer", "type": "Placer", "weight": 1.0}}, {"type": "Feature", "geometry": {"type": "Point", "coordinates": [-115.06906, 45.50958]}, "properties": {"source": "mrds", "name": "Nixon Bar", "type": "Placer", "weight": 1.0}}, {"type": "Feature", "geometry": {"type": "Point", "coordinates": [-114.98956, 45.49158]}, "properties": {"source": "mrds", "name": "Cory Bar", "type": "Placer", "weight": 1.0}}, {"type": "Feature", "geometry": {"type": "Point", "coordinates": [-114.92178, 45.44877]}, "properties": {"source": "mrds", "name": "Elkhorn Bar", "type": "Placer", "weight": 1.0}}, {"type": "Feature", "geometry": {"type": "Point", "coordinates": [-114.87345, 45.41908]}, "properties": {"source": "mrds", "name": "Lantz Bar", "type": "Placer", "weight": 1.0}}, {"type": "Feature", "geometry": {"type": "Point", "coordinates": [-115.22847, 45.56048]}, "properties": {"source": "mrds", "name": "Allison Ranch Placer", "type": "Placer", "weight": 1.0}}, {"type": "Feature", "geometry": {"type": "Point", "coordinates": [-115.31127, 45.52598]}, "properties": {"source": "mrds", "name": "Gold Dust Sonny Placer", "type": "Placer", "weight": 1.0}}, {"type": "Feature", "geometry": {"type": "Point", "coordinates": [-115.44597, 45.43817]}, "properties": {"source": "mrds", "name": "Boise Bar", "type": "Placer", "weight": 1.0}}, {"type": "Feature", "geometry": {"type": "Point", "coordinates": [-115.15626, 45.54498]}, "properties": {"source": "mrds", "name": "Rattlesnake Bar", "type": "Placer", "weight": 1.0}}, {"type": "Feature", "geometry": {"type": "Point", "coordinates": [-115.45875, 45.54459]}, "properties": {"source": "mrds", "name": "Crooked Creek Placer", "type": "Placer", "weight": 1.0}}, {"type": "Feature", "geometry": {"type": "Point", "coordinates": [-115.89208, 45.24657]}, "properties": {"source": "mrds", "name": "Laughing Water Group", "type": "Placer", "weight": 1.0}}, {"type": "Feature", "geometry": {"type": "Point", "coordinates": [-115.30156, 45.22958]}, "properties": {"source": "mrds", "name": "Beaver Creek Basin Placer", "type": "Placer", "weight": 0.5}}, {"type": "Feature", "geometry": {"type": "Point", "coordinates": [-115.53208, 45.81067]}, "properties": {"source": "mrds", "name": "Alma Placer", "type": "Placer", "weight": 1.0}}, {"type": "Feature", "geometry": {"type": "Point", "coordinates": [-115.45038, 45.88737]}, "properties": {"source": "mrds", "name": "American Placer", "type": "Placer", "weight": 1.0}}, {"type": "Feature", "geometry": {"type": "Point", "coordinates": [-115.09266, 45.19128]}, "properties": {"source": "mrds", "name": "Crooked Creek Placer", "type": "Placer", "weight": 0.5}}, {"type": "Feature", "geometry": {"type": "Point", "coordinates": [-115.13735, 45.16877]}, "properties": {"source": "mrds", "name": "Carpenters Gulch Placer", "type": "Placer", "weight": 0.5}}, {"type": "Feature", "geometry": {"type": "Point", "coordinates": [-115.1479, 45.1746]}, "properties": {"source": "mrds", "name": "Little Ramey Placer", "type": "Placer", "weight": 0.5}}, {"type": "Feature", "geometry": {"type": "Point", "coordinates": [-114.25453, 45.44908]}, "properties": {"source": "mrds", "name": "Silver King Claims", "type": "Unknown", "weight": 1.0}}, {"type": "Feature", "geometry": {"type": "Point", "coordinates": [-114.07783, 45.38049]}, "properties": {"source": "mrds", "name": "Radiant Claims", "type": "Unknown", "weight": 0.5}}, {"type": "Feature", "geometry": {"type": "Point", "coordinates": [-115.19124, 45.17238]}, "properties": {"source": "mrds", "name": "Fall Creek Bar Placer", "type": "Placer", "weight": 1.0}}, {"type": "Feature", "geometry": {"type": "Point", "coordinates": [-115.19902, 45.1721]}, "properties": {"source": "mrds", "name": "Copper Camp Flat Placer", "type": "Placer", "weight": 0.5}}, {"type": "Feature", "geometry": {"type": "Point", "coordinates": [-115.18926, 45.26848]}, "properties": {"source": "mrds", "name": "Lower Ramey Meadows Placer", "type": "Placer", "weight": 0.5}}, {"type": "Feature", "geometry": {"type": "Point", "coordinates": [-115.27316, 45.27878]}, "properties": {"source": "mrds", "name": "Hand Meadows Placer", "type": "Placer", "weight": 0.5}}, {"type": "Feature", "geometry": {"type": "Point", "coordinates": [-115.07515, 45.15958]}, "properties": {"source": "mrds", "name": "No Name Claim", "type": "Unknown", "weight": 0.5}}, {"type": "Feature", "geometry": {"type": "Point", "coordinates": [-115.51208, 45.36931]}, "properties": {"source": "mrds", "name": "Salmon Placer South", "type": "Placer", "weight": 1.0}}, {"type": "Feature", "geometry": {"type": "Point", "coordinates": [-115.03405, 45.13768]}, "properties": {"source": "mrds", "name": "No Name Placer", "type": "Placer", "weight": 0.5}}, {"type": "Feature", "geometry": {"type": "Point", "coordinates": [-114.67034, 45.23628]}, "properties": {"source": "mrds", "name": "Stoddard Creek Placer", "type": "Placer", "weight": 1.0}}, {"type": "Feature", "geometry": {"type": "Point", "coordinates": [-114.6089, 45.0464]}, "properties": {"source": "mrds", "name": "Langley Bar Placer", "type": "Placer", "weight": 0.5}}, {"type": "Feature", "geometry": {"type": "Point", "coordinates": [-114.60014, 45.29548]}, "properties": {"source": "mrds", "name": "Middle Fork Placer", "type": "Placer", "weight": 1.0}}, {"type": "Feature", "geometry": {"type": "Point", "coordinates": [-114.68924, 45.21128]}, "properties": {"source": "mrds", "name": "Nugget Creek Placer", "type": "Placer", "weight": 1.0}}, {"type": "Feature", "geometry": {"type": "Point", "coordinates": [-114.70124, 45.18878]}, "properties": {"source": "mrds", "name": "Parrot Camp Placer", "type": "Placer", "weight": 1.0}}, {"type": "Feature", "geometry": {"type": "Point", "coordinates": [-114.72594, 45.03658]}, "properties": {"source": "mrds", "name": "Wilson Creek Placer", "type": "Placer", "weight": 1.0}}, {"type": "Feature", "geometry": {"type": "Point", "coordinates": [-114.72874, 45.05268]}, "properties": {"source": "mrds", "name": "Survey Creek Placer", "type": "Placer", "weight": 0.5}}, {"type": "Feature", "geometry": {"type": "Point", "coordinates": [-115.11655, 45.06428]}, "properties": {"source": "mrds", "name": "Dovel Placer", "type": "Placer", "weight": 1.0}}, {"type": "Feature", "geometry": {"type": "Point", "coordinates": [-115.12155, 45.02178]}, "properties": {"source": "mrds", "name": "Monumental Creek Ranch Placer", "type": "Placer", "weight": 1.0}}, {"type": "Feature", "geometry": {"type": "Point", "coordinates": [-114.94845, 45.28128]}, "properties": {"source": "mrds", "name": "Cold Meadows Placer", "type": "Placer", "weight": 1.0}}, {"type": "Feature", "geometry": {"type": "Point", "coordinates": [-114.65064, 45.32298]}, "properties": {"source": "mrds", "name": "Kitchen Creek Bar Placer", "type": "Placer", "weight": 1.0}}, {"type": "Feature", "geometry": {"type": "Point", "coordinates": [-115.06815, 45.14488]}, "properties": {"source": "mrds", "name": "Hard Boil Bar Placer", "type": "Placer", "weight": 0.5}}, {"type": "Feature", "geometry": {"type": "Point", "coordinates": [-115.07536, 45.51598]}, "properties": {"source": "mrds", "name": "Bruin Creek Bar Placer", "type": "Placer", "weight": 0.5}}, {"type": "Feature", "geometry": {"type": "Point", "coordinates": [-115.10456, 45.52628]}, "properties": {"source": "mrds", "name": "Bear Creek Bar Placer", "type": "Placer", "weight": 1.0}}, {"type": "Feature", "geometry": {"type": "Point", "coordinates": [-115.21907, 45.56768]}, "properties": {"source": "mrds", "name": "Meyers Creek Placer", "type": "Placer", "weight": 1.0}}, {"type": "Feature", "geometry": {"type": "Point", "coordinates": [-115.28157, 45.53158]}, "properties": {"source": "mrds", "name": "Julie Creek Bar Placer", "type": "Placer", "weight": 0.5}}, {"type": "Feature", "geometry": {"type": "Point", "coordinates": [-115.35237, 45.48238]}, "properties": {"source": "mrds", "name": "Widow Bar Placer", "type": "Placer", "weight": 0.5}}, {"type": "Feature", "geometry": {"type": "Point", "coordinates": [-115.38927, 45.47408]}, "properties": {"source": "mrds", "name": "Lemhi Bar Placer", "type": "Placer", "weight": 0.5}}, {"type": "Feature", "geometry": {"type": "Point", "coordinates": [-114.69015, 45.36548]}, "properties": {"source": "mrds", "name": "Cunningham Bar Placer", "type": "Placer", "weight": 1.0}}, {"type": "Feature", "geometry": {"type": "Point", "coordinates": [-115.12096, 45.31068]}, "properties": {"source": "mrds", "name": "Moose Meadow Placer", "type": "Placer", "weight": 1.0}}, {"type": "Feature", "geometry": {"type": "Point", "coordinates": [-115.03156, 45.30658]}, "properties": {"source": "mrds", "name": "Root Ranch Placer", "type": "Placer", "weight": 1.0}}, {"type": "Feature", "geometry": {"type": "Point", "coordinates": [-115.09676, 45.14848]}, "properties": {"source": "mrds", "name": "Mile Flat Placer", "type": "Placer", "weight": 0.5}}, {"type": "Feature", "geometry": {"type": "Point", "coordinates": [-114.23232, 45.45016]}, "properties": {"source": "mrds", "name": "Lee Buck Group", "type": "Unknown", "weight": 0.5}}, {"type": "Feature", "geometry": {"type": "Point", "coordinates": [-114.08373, 45.37929]}, "properties": {"source": "mrds", "name": "Salmon River Uranium Development Co.", "type": "Unknown", "weight": 1.0}}, {"type": "Feature", "geometry": {"type": "Point", "coordinates": [-115.52097, 45.35598]}, "properties": {"source": "mrds", "name": "Dodge Placer South", "type": "Placer", "weight": 1.0}}, {"type": "Feature", "geometry": {"type": "Point", "coordinates": [-115.51317, 45.37317]}, "properties": {"source": "mrds", "name": "Salmon Placer North", "type": "Placer", "weight": 1.0}}, {"type": "Feature", "geometry": {"type": "Point", "coordinates": [-114.72314, 45.05238]}, "properties": {"source": "mrds", "name": "Survey Creek Bar Placer", "type": "Placer", "weight": 0.5}}, {"type": "Feature", "geometry": {"type": "Point", "coordinates": [-115.35319, 45.47544]}, "properties": {"source": "mrds", "name": "Groundhog Bar Placer", "type": "Placer", "weight": 1.0}}, {"type": "Feature", "geometry": {"type": "Point", "coordinates": [-113.4778, 44.97909]}, "properties": {"source": "mrds", "name": "Buffalo Mine", "type": "Unknown", "weight": 1.0}}, {"type": "Feature", "geometry": {"type": "Point", "coordinates": [-113.4633, 44.9664]}, "properties": {"source": "mrds", "name": "Blue Boar Prospect", "type": "Unknown", "weight": 0.5}}, {"type": "Feature", "geometry": {"type": "Point", "coordinates": [-113.4553, 44.9661]}, "properties": {"source": "mrds", "name": "Blue Ridge Occurrence", "type": "Unknown", "weight": 0.5}}, {"type": "Feature", "geometry": {"type": "Point", "coordinates": [-116.38962, 46.58906]}, "properties": {"source": "mrds", "name": "Teakean Butte Occurrence", "type": "Placer", "weight": 0.5}}, {"type": "Feature", "geometry": {"type": "Point", "coordinates": [-116.08845, 42.99488]}, "properties": {"source": "mrds", "name": "Pyramid Placer Mine", "type": "Placer", "weight": 1.0}}, {"type": "Feature", "geometry": {"type": "Point", "coordinates": [-116.16878, 44.93657]}, "properties": {"source": "mrds", "name": "Rock Flat Placer", "type": "Unknown", "weight": 1.0}}, {"type": "Feature", "geometry": {"type": "Point", "coordinates": [-116.02432, 45.42848]}, "properties": {"source": "mrds", "name": "Robbins Creek Placer", "type": "Placer", "weight": 0.5}}, {"type": "Feature", "geometry": {"type": "Point", "coordinates": [-124.21795, 47.24006]}, "properties": {"source": "mrds", "name": "Moclips Placer", "type": "Beach Placer", "weight": 0.5}}, {"type": "Feature", "geometry": {"type": "Point", "coordinates": [-115.37014, 43.72928]}, "properties": {"source": "mrds", "name": "Dismal Swamp Placer Mine", "type": "Placer", "weight": 1.0}}, {"type": "Feature", "geometry": {"type": "Point", "coordinates": [-114.69063, 44.25629]}, "properties": {"source": "mrds", "name": "Centauras Workings", "type": "Placer", "weight": 1.0}}, {"type": "Feature", "geometry": {"type": "Point", "coordinates": [-114.98566, 45.48628]}, "properties": {"source": "mrds", "name": "Smith Gulch Bar", "type": "Placer", "weight": 1.0}}, {"type": "Feature", "geometry": {"type": "Point", "coordinates": [-115.46567, 45.41657]}, "properties": {"source": "mrds", "name": "Painter Bar", "type": "Placer", "weight": 1.0}}, {"type": "Feature", "geometry": {"type": "Point", "coordinates": [-115.19677, 45.56548]}, "properties": {"source": "mrds", "name": "Bargamin Bar", "type": "Placer", "weight": 1.0}}, {"type": "Feature", "geometry": {"type": "Point", "coordinates": [-115.27657, 45.53408]}, "properties": {"source": "mrds", "name": "Big Mallard Bar", "type": "Placer", "weight": 1.0}}, {"type": "Feature", "geometry": {"type": "Point", "coordinates": [-115.33817, 45.48658]}, "properties": {"source": "mrds", "name": "Moore Bar", "type": "Placer", "weight": 1.0}}, {"type": "Feature", "geometry": {"type": "Point", "coordinates": [-114.73206, 45.39571]}, "properties": {"source": "mrds", "name": "Horse Creek Placers Nos. 1, 2, 3, 4, and Horse Bar", "type": "Placer", "weight": 1.0}}, {"type": "Feature", "geometry": {"type": "Point", "coordinates": [-115.81292, 45.33459]}, "properties": {"source": "mrds", "name": "Idaho Klondike Placer", "type": "Placer", "weight": 1.0}}, {"type": "Feature", "geometry": {"type": "Point", "coordinates": [-115.16516, 45.17548]}, "properties": {"source": "mrds", "name": "Big Ramey Placer", "type": "Placer", "weight": 0.5}}, {"type": "Feature", "geometry": {"type": "Point", "coordinates": [-115.21513, 45.16571]}, "properties": {"source": "mrds", "name": "Copper Creek Placer", "type": "Placer", "weight": 0.5}}, {"type": "Feature", "geometry": {"type": "Point", "coordinates": [-115.24263, 45.16349]}, "properties": {"source": "mrds", "name": "Beaver Creek Placer", "type": "Placer", "weight": 0.5}}, {"type": "Feature", "geometry": {"type": "Point", "coordinates": [-115.22736, 45.28738]}, "properties": {"source": "mrds", "name": "Upper Ramey Meadows Placer", "type": "Placer", "weight": 0.5}}, {"type": "Feature", "geometry": {"type": "Point", "coordinates": [-115.29597, 45.53458]}, "properties": {"source": "mrds", "name": "Hermit Hanks Bar Placer", "type": "Placer", "weight": 0.5}}, {"type": "Feature", "geometry": {"type": "Point", "coordinates": [-115.47067, 45.41068]}, "properties": {"source": "mrds", "name": "Excelsior Bar Placer", "type": "Placer", "weight": 0.5}}, {"type": "Feature", "geometry": {"type": "Point", "coordinates": [-114.88485, 45.42178]}, "properties": {"source": "mrds", "name": "Disappointment Bar Placer", "type": "Placer", "weight": 1.0}}, {"type": "Feature", "geometry": {"type": "Point", "coordinates": [-115.18676, 45.32238]}, "properties": {"source": "mrds", "name": "Lodgepole Meadow Placer", "type": "Placer", "weight": 1.0}}, {"type": "Feature", "geometry": {"type": "Point", "coordinates": [-115.51737, 45.34737]}, "properties": {"source": "mrds", "name": "Mountain Sheep Placer", "type": "Placer", "weight": 1.0}}, {"type": "Feature", "geometry": {"type": "Point", "coordinates": [-115.05155, 45.14098]}, "properties": {"source": "mrds", "name": "Soft Boil Bar Placer", "type": "Placer", "weight": 0.5}}, {"type": "Feature", "geometry": {"type": "Point", "coordinates": [-115.31036, 45.15488]}, "properties": {"source": "mrds", "name": "Smith Creek Hydraulic Co. Placer", "type": "Unknown", "weight": 1.0}}, {"type": "Feature", "geometry": {"type": "Point", "coordinates": [-116.07484, 42.98432]}, "properties": {"source": "mrds", "name": "Grand View Placer", "type": "Stream Placer", "weight": 1.0}}, {"type": "Feature", "geometry": {"type": "Point", "coordinates": [-115.47785, 44.27768]}, "properties": {"source": "mrds", "name": "Grinibun", "type": "Placer", "weight": 0.5}}, {"type": "Feature", "geometry": {"type": "Point", "coordinates": [-118.12389, 48.10652]}, "properties": {"source": "mrds", "name": "Read", "type": "Unknown", "weight": 0.5}}, {"type": "Feature", "geometry": {"type": "Point", "coordinates": [-115.29204, 43.68848]}, "properties": {"source": "mrds", "name": "Feather River Placer", "type": "Placer", "weight": 1.0}}, {"type": "Feature", "geometry": {"type": "Point", "coordinates": [-114.72873, 44.13519]}, "properties": {"source": "mrds", "name": "Martin Creek Placer", "type": "Placer", "weight": 0.5}}, {"type": "Feature", "geometry": {"type": "Point", "coordinates": [-114.61063, 44.25159]}, "properties": {"source": "mrds", "name": "Cold Creek Bar Placer", "type": "Placer", "weight": 0.5}}, {"type": "Feature", "geometry": {"type": "Point", "coordinates": [-114.72563, 44.13049]}, "properties": {"source": "mrds", "name": "The Meadows Placer", "type": "Placer", "weight": 1.0}}, {"type": "Feature", "geometry": {"type": "Point", "coordinates": [-115.03845, 45.13988]}, "properties": {"source": "mrds", "name": "Coxey Creek Bar Placer", "type": "Placer", "weight": 0.5}}, {"type": "Feature", "geometry": {"type": "Point", "coordinates": [-115.12929, 45.16155]}, "properties": {"source": "mrds", "name": "Monumental Bar Placer", "type": "Placer", "weight": 0.5}}, {"type": "Feature", "geometry": {"type": "Point", "coordinates": [-115.21457, 45.16377]}, "properties": {"source": "mrds", "name": "Crossing Bar Placer", "type": "Placer", "weight": 0.5}}, {"type": "Feature", "geometry": {"type": "Point", "coordinates": [-115.31816, 45.27708]}, "properties": {"source": "mrds", "name": "Crane Meadows Placer", "type": "Placer", "weight": 0.5}}, {"type": "Feature", "geometry": {"type": "Point", "coordinates": [-114.96375, 45.15818]}, "properties": {"source": "mrds", "name": "Cave Creek Placer", "type": "Placer", "weight": 0.5}}, {"type": "Feature", "geometry": {"type": "Point", "coordinates": [-114.80485, 45.11818]}, "properties": {"source": "mrds", "name": "Goat Creek Placer", "type": "Placer", "weight": 0.5}}, {"type": "Feature", "geometry": {"type": "Point", "coordinates": [-114.72734, 45.06348]}, "properties": {"source": "mrds", "name": "Woolard Creek Placer", "type": "Placer", "weight": 0.5}}, {"type": "Feature", "geometry": {"type": "Point", "coordinates": [-115.15126, 45.46988]}, "properties": {"source": "mrds", "name": "Dillinger Meadows Placer", "type": "Placer", "weight": 1.0}}, {"type": "Feature", "geometry": {"type": "Point", "coordinates": [-115.26567, 45.53738]}, "properties": {"source": "mrds", "name": "Richardson Creek Bar Placer", "type": "Placer", "weight": 0.5}}, {"type": "Feature", "geometry": {"type": "Point", "coordinates": [-115.05266, 45.50738]}, "properties": {"source": "mrds", "name": "Barth Hot Springs Bar Placer", "type": "Placer", "weight": 0.5}}, {"type": "Feature", "geometry": {"type": "Point", "coordinates": [-115.52097, 45.36126]}, "properties": {"source": "mrds", "name": "Dodge Placer North", "type": "Placer", "weight": 1.0}}, {"type": "Feature", "geometry": {"type": "Point", "coordinates": [-115.51875, 45.35431]}, "properties": {"source": "mrds", "name": "Huddleson Placer", "type": "Placer", "weight": 1.0}}, {"type": "Feature", "geometry": {"type": "Point", "coordinates": [-114.0733, 45.3961]}, "properties": {"source": "mrds", "name": "Last Chance Prospect", "type": "Unknown", "weight": 1.0}}, {"type": "Feature", "geometry": {"type": "Point", "coordinates": [-115.06015, 45.14298]}, "properties": {"source": "mrds", "name": "Over Easy Bar Placer", "type": "Placer", "weight": 0.5}}, {"type": "Feature", "geometry": {"type": "Point", "coordinates": [-113.1675, 44.6314]}, "properties": {"source": "mrds", "name": "Kay Claims", "type": "Unknown", "weight": 0.5}}, {"type": "Feature", "geometry": {"type": "Point", "coordinates": [-116.40242, 46.65546]}, "properties": {"source": "mrds", "name": "Mason Butte Titanium Placer", "type": "Placer", "weight": 0.5}}, {"type": "Feature", "geometry": {"type": "Point", "coordinates": [-118.87892, 48.39762]}, "properties": {"source": "mrds", "name": "Park City District", "type": "Placer", "weight": 0.5}}, {"type": "Feature", "geometry": {"type": "Point", "coordinates": [-123.51532, 42.08315]}, "properties": {"source": "mrds", "name": "Brown Town", "type": "Stream Placer", "weight": 0.5}}, {"type": "Feature", "geometry": {"type": "Point", "coordinates": [-115.61456, 44.38658]}, "properties": {"source": "mrds", "name": "Deadwood Placer Deposit", "type": "Placer", "weight": 0.5}}, {"type": "Feature", "geometry": {"type": "Point", "coordinates": [-114.84033, 44.09319]}, "properties": {"source": "mrds", "name": "Williams Creek Placer", "type": "Placer", "weight": 1.0}}, {"type": "Feature", "geometry": {"type": "Point", "coordinates": [-115.14904, 44.10408]}, "properties": {"source": "mrds", "name": "Payette Placer", "type": "Placer", "weight": 0.5}}, {"type": "Feature", "geometry": {"type": "Point", "coordinates": [-114.27653, 45.45848]}, "properties": {"source": "mrds", "name": "Monazite Queen Claims", "type": "Unknown", "weight": 0.5}}, {"type": "Feature", "geometry": {"type": "Point", "coordinates": [-114.2186, 45.4144]}, "properties": {"source": "mrds", "name": "H. R. Roberts' Claims", "type": "Unknown", "weight": 1.0}}, {"type": "Feature", "geometry": {"type": "Point", "coordinates": [-118.98198, 48.95762]}, "properties": {"source": "mrds", "name": "Aztec Claim", "type": "Unknown", "weight": 1.0}}, {"type": "Feature", "geometry": {"type": "Point", "coordinates": [-115.18342, 42.98959]}, "properties": {"source": "mrds", "name": "Tyceska Gold Mining Co.", "type": "Stream Placer", "weight": 1.0}}, {"type": "Feature", "geometry": {"type": "Point", "coordinates": [-124.68492, 48.25506]}, "properties": {"source": "mrds", "name": "Shi Shi Beach Placer", "type": "Beach Placer", "weight": 1.0}}, {"type": "Feature", "geometry": {"type": "Point", "coordinates": [-116.6413, 44.89127]}, "properties": {"source": "mrds", "name": "North Hornet Mine", "type": "Unknown", "weight": 1.0}}, {"type": "Feature", "geometry": {"type": "Point", "coordinates": [-114.83343, 44.22769]}, "properties": {"source": "mrds", "name": "Big Casino Creek Placer", "type": "Placer", "weight": 1.0}}, {"type": "Feature", "geometry": {"type": "Point", "coordinates": [-115.40178, 44.37071]}, "properties": {"source": "mrds", "name": "Bear Valley Placers", "type": "Placer", "weight": 1.0}}, {"type": "Feature", "geometry": {"type": "Point", "coordinates": [-114.90013, 44.23848]}, "properties": {"source": "mrds", "name": "Four Aces Placer", "type": "Placer", "weight": 1.0}}, {"type": "Feature", "geometry": {"type": "Point", "coordinates": [-115.39291, 45.47349]}, "properties": {"source": "mrds", "name": "Gaines Bar", "type": "Placer", "weight": 1.0}}, {"type": "Feature", "geometry": {"type": "Point", "coordinates": [-115.25877, 45.53928]}, "properties": {"source": "mrds", "name": "Yellow Pine Bar", "type": "Placer", "weight": 1.0}}, {"type": "Feature", "geometry": {"type": "Point", "coordinates": [-115.93658, 45.31067]}, "properties": {"source": "mrds", "name": "Three Mile Creek Placer", "type": "Placer", "weight": 1.0}}, {"type": "Feature", "geometry": {"type": "Point", "coordinates": [-115.41762, 44.34988]}, "properties": {"source": "mrds", "name": "Bear Valley Placer", "type": "Placer", "weight": 3.0}}, {"type": "Feature", "geometry": {"type": "Point", "coordinates": [-115.48428, 44.28321]}, "properties": {"source": "mrds", "name": "Gold Eagle", "type": "Placer", "weight": 3.0}}, {"type": "Feature", "geometry": {"type": "Point", "coordinates": [-115.58516, 44.27908]}, "properties": {"source": "mrds", "name": "Whitehawk", "type": "Placer", "weight": 3.0}}, {"type": "Feature", "geometry": {"type": "Point", "coordinates": [-115.48428, 44.28321]}, "properties": {"source": "mrds", "name": "War Eagle Group", "type": "Placer", "weight": 3.0}}, {"type": "Feature", "geometry": {"type": "Point", "coordinates": [-115.48428, 44.28321]}, "properties": {"source": "mrds", "name": "Monazite Group", "type": "Placer", "weight": 3.0}}, {"type": "Feature", "geometry": {"type": "Point", "coordinates": [-124.68742, 48.09422]}, "properties": {"source": "mrds", "name": "Yellow Banks Placer", "type": "Beach Placer", "weight": 3.0}}, {"type": "Feature", "geometry": {"type": "Point", "coordinates": [-116.00097, 44.99988]}, "properties": {"source": "mrds", "name": "Heavy Mineral Placer", "type": "Unknown", "weight": 3.0}}, {"type": "Feature", "geometry": {"type": "Point", "coordinates": [-114.56156, 46.32678]}, "properties": {"source": "mrds", "name": "Big Sand Creek", "type": "Unknown", "weight": 1.0}}, {"type": "Feature", "geometry": {"type": "Point", "coordinates": [-113.6364, 42.0503]}, "properties": {"source": "mrds", "name": "Almo Basin-Raft River #3", "type": "Unknown", "weight": 1.0}}, {"type": "Feature", "geometry": {"type": "Point", "coordinates": [-116.42823, 46.84236]}, "properties": {"source": "mrds", "name": "Bovill Clay Deposit", "type": "Unknown", "weight": 1.0}}, {"type": "Feature", "geometry": {"type": "Point", "coordinates": [-115.82928, 45.26847]}, "properties": {"source": "mrds", "name": "Hamby Mining Group", "type": "Unknown", "weight": 1.0}}, {"type": "Feature", "geometry": {"type": "Point", "coordinates": [-116.02318, 44.70097]}, "properties": {"source": "mrds", "name": "Gold Fork-Little Valley Placers", "type": "119: Placer Au-PGE", "weight": 1.0}}, {"type": "Feature", "geometry": {"type": "Point", "coordinates": [-124.6012, 43.3165]}, "properties": {"source": "mrds", "name": "Southwest Oregon Beach Sands", "type": "Unknown", "weight": 1.0}}, {"type": "Feature", "geometry": {"type": "Point", "coordinates": [-117.87993, 44.58266]}, "properties": {"source": "mrds", "name": "Harbo's Nos. 1-3", "type": "Unknown", "weight": 1.0}}, {"type": "Feature", "geometry": {"type": "Point", "coordinates": [-117.60072, 44.43796]}, "properties": {"source": "mrds", "name": "Timmons Talc", "type": "Unknown", "weight": 1.0}}, {"type": "Feature", "geometry": {"type": "Point", "coordinates": [-123.02833, 42.01403]}, "properties": {"source": "mrds", "name": "Summit Lake", "type": "Unknown", "weight": 1.0}}, {"type": "Feature", "geometry": {"type": "Point", "coordinates": [-123.08429, 44.9623]}, "properties": {"source": "mrds", "name": "Chapman and Eola Hills Bauxite", "type": "Unknown", "weight": 0.5}}, {"type": "Feature", "geometry": {"type": "Point", "coordinates": [-122.7331, 45.6492]}, "properties": {"source": "mrds", "name": "(Facility) Vancouver Aluminum Smelter", "type": "Unknown", "weight": 1.0}}, {"type": "Feature", "geometry": {"type": "Point", "coordinates": [-118.44692, 48.21735]}, "properties": {"source": "mrds", "name": "Wilson Columibite Prospect", "type": "Unknown", "weight": 1.0}}, {"type": "Feature", "geometry": {"type": "Point", "coordinates": [-118.44972, 48.21925]}, "properties": {"source": "mrds", "name": "Wilmont Creek", "type": "Unknown", "weight": 1.0}}, {"type": "Feature", "geometry": {"type": "Point", "coordinates": [-122.54729, 45.70371]}, "properties": {"source": "mrds", "name": "Brush Prairie Placer", "type": "Unknown", "weight": 1.0}}, {"type": "Feature", "geometry": {"type": "Point", "coordinates": [-121.24652, 48.50122]}, "properties": {"source": "mrds", "name": "Sadie Cudworth", "type": "Unknown", "weight": 1.0}}, {"type": "Feature", "geometry": {"type": "Point", "coordinates": [-121.25202, 48.51982]}, "properties": {"source": "mrds", "name": "Skoal Talc Mine", "type": "Unknown", "weight": 1.0}}, {"type": "Feature", "geometry": {"type": "Point", "coordinates": [-117.20279, 48.86596]}, "properties": {"source": "mrds", "name": "Totem Gulch Talc Mine", "type": "Unknown", "weight": 1.0}}, {"type": "Feature", "geometry": {"type": "Point", "coordinates": [-115.24594, 43.64209]}, "properties": {"source": "mrds", "name": "Feather River", "type": "Unknown", "weight": 1.0}}, {"type": "Feature", "geometry": {"type": "Point", "coordinates": [-115.46845, 44.27568]}, "properties": {"source": "mrds", "name": "Columbite", "type": "Unknown", "weight": 1.0}}, {"type": "Feature", "geometry": {"type": "Point", "coordinates": [-113.4562, 44.96599]}, "properties": {"source": "mrds", "name": "Blue Ridge", "type": "Unknown", "weight": 0.5}}, {"type": "Feature", "geometry": {"type": "Point", "coordinates": [-115.14565, 44.95768]}, "properties": {"source": "mrds", "name": "Dewey Mine", "type": "Unknown", "weight": 1.0}}, {"type": "Feature", "geometry": {"type": "Point", "coordinates": [-116.28134, 47.60347]}, "properties": {"source": "mrds", "name": "Mcgillivray Prospect", "type": "Unknown", "weight": 1.0}}, {"type": "Feature", "geometry": {"type": "Point", "coordinates": [-123.93844, 46.19539]}, "properties": {"source": "mrds", "name": "Hammond Black Sand Locality No. 1", "type": "Unknown", "weight": 1.0}}, {"type": "Feature", "geometry": {"type": "Point", "coordinates": [-122.87201, 45.8931]}, "properties": {"source": "mrds", "name": "Columbia County Bauxite Deposits", "type": "Unknown", "weight": 1.0}}, {"type": "Feature", "geometry": {"type": "Point", "coordinates": [-121.88172, 42.86873]}, "properties": {"source": "mrds", "name": "Klamath Titanium", "type": "Unknown", "weight": 1.0}}, {"type": "Feature", "geometry": {"type": "Point", "coordinates": [-117.88163, 44.58376]}, "properties": {"source": "mrds", "name": "Harbo Claims", "type": "Unknown", "weight": 1.0}}, {"type": "Feature", "geometry": {"type": "Point", "coordinates": [-122.31258, 45.25511]}, "properties": {"source": "mrds", "name": "Ferruginous Bauxite Deposit", "type": "Unknown", "weight": 1.0}}, {"type": "Feature", "geometry": {"type": "Point", "coordinates": [-123.91366, 42.31092]}, "properties": {"source": "mrds", "name": "Tincup Iron Deposit", "type": "Unknown", "weight": 0.5}}, {"type": "Feature", "geometry": {"type": "Point", "coordinates": [-123.05839, 44.85791]}, "properties": {"source": "mrds", "name": "Salem Hills Bauxite", "type": "Unknown", "weight": 1.0}}, {"type": "Feature", "geometry": {"type": "Point", "coordinates": [-123.02199, 44.83121]}, "properties": {"source": "mrds", "name": "Entress Farm", "type": "Unknown", "weight": 0.5}}, {"type": "Feature", "geometry": {"type": "Point", "coordinates": [-122.9023, 45.6115]}, "properties": {"source": "mrds", "name": "Tualatin Mountains Bauxite", "type": "Unknown", "weight": 1.0}}, {"type": "Feature", "geometry": {"type": "Point", "coordinates": [-118.7054, 48.0475]}, "properties": {"source": "mrds", "name": "Mount Tolman", "type": "Unknown", "weight": 1.0}}, {"type": "Feature", "geometry": {"type": "Point", "coordinates": [-120.68194, 45.72703]}, "properties": {"source": "mrds", "name": "(Facility) Goldendale Aluminum Smelter", "type": "Unknown", "weight": 1.0}}, {"type": "Feature", "geometry": {"type": "Point", "coordinates": [-121.25312, 48.50902]}, "properties": {"source": "mrds", "name": "Bridge Creek", "type": "Unknown", "weight": 1.0}}, {"type": "Feature", "geometry": {"type": "Point", "coordinates": [-121.37432, 48.59592]}, "properties": {"source": "mrds", "name": "Mc-Myrl - Wilson", "type": "Unknown", "weight": 3.0}}, {"type": "Feature", "geometry": {"type": "Point", "coordinates": [-124.05345, 46.48979]}, "properties": {"source": "mrds", "name": "Ocean Park Placer", "type": "Unknown", "weight": 0.5}}, {"type": "Feature", "geometry": {"type": "Point", "coordinates": [-120.22677, 47.85843]}, "properties": {"source": "mrds", "name": "First Creek", "type": "Unknown", "weight": 0.5}}, {"type": "Feature", "geometry": {"type": "Point", "coordinates": [-118.0097, 47.79925]}, "properties": {"source": "mrds", "name": "C.W. Capps", "type": "Unknown", "weight": 0.5}}, {"type": "Feature", "geometry": {"type": "Point", "coordinates": [-118.0164, 48.09425]}, "properties": {"source": "mrds", "name": "Firmenhac", "type": "Unknown", "weight": 1.0}}, {"type": "Feature", "geometry": {"type": "Point", "coordinates": [-119.50287, 48.97014]}, "properties": {"source": "mrds", "name": "Similkameen Falls Placer", "type": "Unknown", "weight": 1.0}}, {"type": "Feature", "geometry": {"type": "Point", "coordinates": [-124.68301, 48.25948]}, "properties": {"source": "mrds", "name": "Shi Shi Beach Placer", "type": "Unknown", "weight": 1.0}}, {"type": "Feature", "geometry": {"type": "Point", "coordinates": [-118.57643, 48.61735]}, "properties": {"source": "mrds", "name": "Bowman Claim", "type": "Unknown", "weight": 0.5}}, {"type": "Feature", "geometry": {"type": "Point", "coordinates": [-121.49147, 46.20232]}, "properties": {"source": "mrds", "name": "Mount Adams Fumarole", "type": "Unknown", "weight": 1.0}}, {"type": "Feature", "geometry": {"type": "Point", "coordinates": [-115.19704, 44.26128]}, "properties": {"source": "mrds", "name": "North Fork Canyon Creek", "type": "Unknown", "weight": 1.0}}, {"type": "Feature", "geometry": {"type": "Point", "coordinates": [-116.05176, 43.67348]}, "properties": {"source": "mrds", "name": "Robie Creek Horseshoe", "type": "Unknown", "weight": 1.0}}, {"type": "Feature", "geometry": {"type": "Point", "coordinates": [-113.69257, 42.06911]}, "properties": {"source": "mrds", "name": "Almo Basin-Circle Creek #2", "type": "Unknown", "weight": 1.0}}, {"type": "Feature", "geometry": {"type": "Point", "coordinates": [-114.69453, 44.27549]}, "properties": {"source": "mrds", "name": "Snake River Mining Co. Placer", "type": "Unknown", "weight": 1.0}}, {"type": "Feature", "geometry": {"type": "Point", "coordinates": [-115.48015, 44.29568]}, "properties": {"source": "mrds", "name": "Bear Valley Placers", "type": "Placer", "weight": 1.0}}, {"type": "Feature", "geometry": {"type": "Point", "coordinates": [-116.63823, 46.77846]}, "properties": {"source": "mrds", "name": "Olson and Stanford Hi-Al Clay", "type": "Unknown", "weight": 1.0}}, {"type": "Feature", "geometry": {"type": "Point", "coordinates": [-115.449828, 45.538939]}, "properties": {"source": "usmin", "name": "", "type": "Prospect Pit", "weight": 1.0}}, {"type": "Feature", "geometry": {"type": "Point", "coordinates": [-116.09959, 45.07407]}, "properties": {"source": "mrds", "name": "Satermeadow", "type": "Unknown", "weight": 0.5}}, {"type": "Feature", "geometry": {"type": "Point", "coordinates": [-114.68816, 46.38098]}, "properties": {"source": "mrds", "name": "Kooskooskia Meadow Placer", "type": "Unknown", "weight": 0.5}}, {"type": "Feature", "geometry": {"type": "Point", "coordinates": [-115.47785, 44.27768]}, "properties": {"source": "mrds", "name": "Grinibun", "type": "Unknown", "weight": 1.0}}, {"type": "Feature", "geometry": {"type": "Point", "coordinates": [-115.48765, 44.29348]}, "properties": {"source": "mrds", "name": "Bear Valley", "type": "Unknown", "weight": 1.0}}, {"type": "Feature", "geometry": {"type": "Point", "coordinates": [-115.96457, 44.71677]}, "properties": {"source": "mrds", "name": "Loomis", "type": "Unknown", "weight": 0.5}}, {"type": "Feature", "geometry": {"type": "Point", "coordinates": [-115.30875, 44.40928]}, "properties": {"source": "mrds", "name": "Bruce Meadow Placer", "type": "Unknown", "weight": 1.0}}, {"type": "Feature", "geometry": {"type": "Point", "coordinates": [-115.48455, 44.28488]}, "properties": {"source": "mrds", "name": "War Eagle Group", "type": "Unknown", "weight": 1.0}}, {"type": "Feature", "geometry": {"type": "Point", "coordinates": [-123.95594, 46.20059]}, "properties": {"source": "mrds", "name": "Hammond Black Sand Locality No. 2", "type": "Unknown", "weight": 1.0}}, {"type": "Feature", "geometry": {"type": "Point", "coordinates": [-123.03303, 42.01653]}, "properties": {"source": "mrds", "name": "Steatite of Southern Oregon", "type": "Unknown", "weight": 3.0}}, {"type": "Feature", "geometry": {"type": "Point", "coordinates": [-123.06309, 44.66171]}, "properties": {"source": "mrds", "name": "Albany B Plant  Ti", "type": "Unknown", "weight": 1.0}}, {"type": "Feature", "geometry": {"type": "Point", "coordinates": [-120.94149, 47.78042]}, "properties": {"source": "mrds", "name": "Ruth", "type": "Unknown", "weight": 0.5}}, {"type": "Feature", "geometry": {"type": "Point", "coordinates": [-123.93564, 46.26699]}, "properties": {"source": "mrds", "name": "Chinook Black Sands", "type": "Unknown", "weight": 0.5}}, {"type": "Feature", "geometry": {"type": "Point", "coordinates": [-120.36337, 47.70543]}, "properties": {"source": "mrds", "name": "Entiat", "type": "Unknown", "weight": 0.5}}, {"type": "Feature", "geometry": {"type": "Point", "coordinates": [-124.12707, 46.96229]}, "properties": {"source": "mrds", "name": "Grays Harbor Area Illmenite Deposit", "type": "Unknown", "weight": 0.5}}, {"type": "Feature", "geometry": {"type": "Point", "coordinates": [-121.35122, 48.61152]}, "properties": {"source": "mrds", "name": "Skagit Talc Products", "type": "Unknown", "weight": 3.0}}, {"type": "Feature", "geometry": {"type": "Point", "coordinates": [-119.20942, 47.13454]}, "properties": {"source": "mrds", "name": "International Titanium Plant", "type": "Unknown", "weight": 3.0}}, {"type": "Feature", "geometry": {"type": "Point", "coordinates": [-121.28812, 48.67762]}, "properties": {"source": "mrds", "name": "Cascade International Talc", "type": "Unknown", "weight": 0.5}}, {"type": "Feature", "geometry": {"type": "Point", "coordinates": [-122.84201, 46.3515]}, "properties": {"source": "mrds", "name": "Cowlitz Clay", "type": "Unknown", "weight": 1.0}}, {"type": "Feature", "geometry": {"type": "Point", "coordinates": [-118.0064, 48.09675]}, "properties": {"source": "mrds", "name": "Markman Talc Prospect", "type": "Unknown", "weight": 0.5}}, {"type": "Feature", "geometry": {"type": "Point", "coordinates": [-118.0105, 48.10065]}, "properties": {"source": "mrds", "name": "C. F. Allen", "type": "Unknown", "weight": 1.0}}, {"type": "Feature", "geometry": {"type": "Point", "coordinates": [-113.63226, 42.12741]}, "properties": {"source": "mrds", "name": "Almo Basin-Edwards Creek", "type": "Unknown", "weight": 1.0}}, {"type": "Feature", "geometry": {"type": "Point", "coordinates": [-122.18204, 48.43401]}, "properties": {"source": "mrds", "name": "Clear Lake Mill", "type": "Unknown", "weight": 1.0}}, {"type": "Feature", "geometry": {"type": "Point", "coordinates": [-113.64776, 42.06991]}, "properties": {"source": "mrds", "name": "Almo Basin-Circle Creek #3", "type": "Unknown", "weight": 1.0}}, {"type": "Feature", "geometry": {"type": "Point", "coordinates": [-116.42162, 46.60596]}, "properties": {"source": "mrds", "name": "Cedar Creek Placer Deposit", "type": "Unknown", "weight": 1.0}}, {"type": "Feature", "geometry": {"type": "Point", "coordinates": [-111.37083, 44.66771]}, "properties": {"source": "mrds", "name": "Tick Heaven Talc Prospect", "type": "Unknown", "weight": 0.5}}, {"type": "Feature", "geometry": {"type": "Point", "coordinates": [-114.98956, 45.49158]}, "properties": {"source": "mrds", "name": "Corey Bar", "type": "Unknown", "weight": 1.0}}, {"type": "Feature", "geometry": {"type": "Point", "coordinates": [-115.81348, 45.32627]}, "properties": {"source": "mrds", "name": "Kelly Meadows", "type": "Unknown", "weight": 0.5}}, {"type": "Feature", "geometry": {"type": "Point", "coordinates": [-115.44125, 44.23208]}, "properties": {"source": "mrds", "name": "Clear Creek Placers", "type": "Unknown", "weight": 0.5}}, {"type": "Feature", "geometry": {"type": "Point", "coordinates": [-114.07653, 45.37659]}, "properties": {"source": "mrds", "name": "Damela Rose", "type": "Unknown", "weight": 1.0}}, {"type": "Feature", "geometry": {"type": "Point", "coordinates": [-115.14064, 44.35488]}, "properties": {"source": "mrds", "name": "Swamp Creek Placer", "type": "Unknown", "weight": 1.0}}, {"type": "Feature", "geometry": {"type": "Point", "coordinates": [-115.7927, 46.35957]}, "properties": {"source": "mrds", "name": "Jim Brown Creek", "type": "Unknown", "weight": 1.0}}, {"type": "Feature", "geometry": {"type": "Point", "coordinates": [-115.29405, 44.38598]}, "properties": {"source": "mrds", "name": "Fir Creek Placers", "type": "Unknown", "weight": 0.5}}, {"type": "Feature", "geometry": {"type": "Point", "coordinates": [-115.99427, 44.47317]}, "properties": {"source": "mrds", "name": "Big Creek Placers", "type": "Unknown", "weight": 1.0}}, {"type": "Feature", "geometry": {"type": "Point", "coordinates": [-115.10096, 45.17458]}, "properties": {"source": "mrds", "name": "Acorn Butte No. 4 Prospect", "type": "Unknown", "weight": 1.0}}, {"type": "Feature", "geometry": {"type": "Point", "coordinates": [-123.10509, 44.60951]}, "properties": {"source": "mrds", "name": "Albany Plant  Ti", "type": "Unknown", "weight": 1.0}}, {"type": "Feature", "geometry": {"type": "Point", "coordinates": [-123.10057, 43.61011]}, "properties": {"source": "mrds", "name": "Hobart Butte", "type": "Unknown", "weight": 1.0}}, {"type": "Feature", "geometry": {"type": "Point", "coordinates": [-122.9865, 45.6884]}, "properties": {"source": "mrds", "name": "Dixie Mountain Bauxite", "type": "Unknown", "weight": 0.5}}, {"type": "Feature", "geometry": {"type": "Point", "coordinates": [-120.36557, 47.67873]}, "properties": {"source": "mrds", "name": "Roaring Creek", "type": "Unknown", "weight": 0.5}}, {"type": "Feature", "geometry": {"type": "Point", "coordinates": [-117.07244, 46.42236]}, "properties": {"source": "mrds", "name": "Clarkston Placer", "type": "Unknown", "weight": 1.0}}, {"type": "Feature", "geometry": {"type": "Point", "coordinates": [-124.68741, 48.09838]}, "properties": {"source": "mrds", "name": "Yellow Banks Placer", "type": "Unknown", "weight": 1.0}}, {"type": "Feature", "geometry": {"type": "Point", "coordinates": [-123.17182, 46.227]}, "properties": {"source": "mrds", "name": "Cowlitz-Wahkiakum Area", "type": "Unknown", "weight": 1.0}}, {"type": "Feature", "geometry": {"type": "Point", "coordinates": [-122.99841, 46.1404]}, "properties": {"source": "mrds", "name": "(Facility) Longview Aluminum Smelter", "type": "Unknown", "weight": 1.0}}, {"type": "Feature", "geometry": {"type": "Point", "coordinates": [-117.93389, 47.60955]}, "properties": {"source": "mrds", "name": "Travis Farm", "type": "Unknown", "weight": 0.5}}, {"type": "Feature", "geometry": {"type": "Point", "coordinates": [-118.88004, 48.39924]}, "properties": {"source": "mrds", "name": "Crounse Placer", "type": "Unknown", "weight": 1.0}}, {"type": "Feature", "geometry": {"type": "Point", "coordinates": [-117.37828, 47.75486]}, "properties": {"source": "mrds", "name": "Mead Reduction Plant", "type": "Unknown", "weight": 3.0}}, {"type": "Feature", "geometry": {"type": "Point", "coordinates": [-119.59226, 48.48813]}, "properties": {"source": "mrds", "name": "Johnson Creek", "type": "Unknown", "weight": 1.0}}, {"type": "Feature", "geometry": {"type": "Point", "coordinates": [-123.91014, 46.24899]}, "properties": {"source": "mrds", "name": "Mc Gowan Placer", "type": "Unknown", "weight": 1.0}}, {"type": "Feature", "geometry": {"type": "Point", "coordinates": [-123.86517, 47.34979]}, "properties": {"source": "mrds", "name": "Elma", "type": "Unknown", "weight": 1.0}}, {"type": "Feature", "geometry": {"type": "Point", "coordinates": [-121.39182, 48.51232]}, "properties": {"source": "mrds", "name": "Cascade Talc Pit", "type": "Unknown", "weight": 1.0}}, {"type": "Feature", "geometry": {"type": "Point", "coordinates": [-115.78926, 43.84518]}, "properties": {"source": "mrds", "name": "Lakow Flats Plcr-Lkw Extnsn No.1-5", "type": "Unknown", "weight": 1.0}}, {"type": "Feature", "geometry": {"type": "Point", "coordinates": [-113.36419, 44.6124]}, "properties": {"source": "mrds", "name": "Geothermal Location", "type": "Unknown", "weight": 0.5}}, {"type": "Feature", "geometry": {"type": "Point", "coordinates": [-115.60629, 46.17487]}, "properties": {"source": "mrds", "name": "Pete King Creek Placer", "type": "Unknown", "weight": 0.5}}, {"type": "Feature", "geometry": {"type": "Point", "coordinates": [-115.37705, 44.21428]}, "properties": {"source": "mrds", "name": "Eightmile Creek Placer", "type": "Unknown", "weight": 0.5}}, {"type": "Feature", "geometry": {"type": "Point", "coordinates": [-115.24344, 44.17208]}, "properties": {"source": "mrds", "name": "Canyon Creek Placers", "type": "Unknown", "weight": 0.5}}, {"type": "Feature", "geometry": {"type": "Point", "coordinates": [-115.10488, 46.75848]}, "properties": {"source": "mrds", "name": "Lucky Deadwood", "type": "Unknown", "weight": 1.0}}, {"type": "Feature", "geometry": {"type": "Point", "coordinates": [-115.56629, 46.57907]}, "properties": {"source": "mrds", "name": "Lucky Bell Mining Group", "type": "Unknown", "weight": 1.0}}, {"type": "Feature", "geometry": {"type": "Point", "coordinates": [-113.63056, 42.02411]}, "properties": {"source": "mrds", "name": "Almo Basin-Raft River #2", "type": "Unknown", "weight": 1.0}}, {"type": "Feature", "geometry": {"type": "Point", "coordinates": [-116.01429, 45.52487]}, "properties": {"source": "mrds", "name": "Florence Meadows", "type": "Unknown", "weight": 0.5}}, {"type": "Feature", "geometry": {"type": "Point", "coordinates": [-113.63866, 42.00931]}, "properties": {"source": "mrds", "name": "Almo Basin-Raft River #1", "type": "Unknown", "weight": 1.0}}, {"type": "Feature", "geometry": {"type": "Point", "coordinates": [-115.09408, 46.75678]}, "properties": {"source": "mrds", "name": "Moose Creek Deposit # 1", "type": "Unknown", "weight": 1.0}}, {"type": "Feature", "geometry": {"type": "Point", "coordinates": [-115.49065, 44.24818]}, "properties": {"source": "mrds", "name": "Gilt Edge", "type": "Unknown", "weight": 1.0}}, {"type": "Feature", "geometry": {"type": "Point", "coordinates": [-116.10174, 42.55019]}, "properties": {"source": "mrds", "name": "Us Titanium Corp", "type": "Unknown", "weight": 1.0}}, {"type": "Feature", "geometry": {"type": "Point", "coordinates": [-115.31036, 45.15488]}, "properties": {"source": "mrds", "name": "Big Creek Placers", "type": "Unknown", "weight": 1.0}}, {"type": "Feature", "geometry": {"type": "Point", "coordinates": [-115.48425, 44.28678]}, "properties": {"source": "mrds", "name": "Monazite Group", "type": "Unknown", "weight": 1.0}}, {"type": "Feature", "geometry": {"type": "Point", "coordinates": [-123.92263, 45.55919]}, "properties": {"source": "mrds", "name": "Netarts Bay", "type": "Unknown", "weight": 0.5}}, {"type": "Feature", "geometry": {"type": "Point", "coordinates": [-123.93124, 46.19199]}, "properties": {"source": "mrds", "name": "Columbia River Bar", "type": "Unknown", "weight": 1.0}}, {"type": "Feature", "geometry": {"type": "Point", "coordinates": [-124.41979, 43.0779]}, "properties": {"source": "mrds", "name": "Bandon Placer", "type": "Unknown", "weight": 0.5}}, {"type": "Feature", "geometry": {"type": "Point", "coordinates": [-120.89009, 47.88592]}, "properties": {"source": "mrds", "name": "White River", "type": "Unknown", "weight": 1.0}}, {"type": "Feature", "geometry": {"type": "Point", "coordinates": [-122.70687, 48.8465]}, "properties": {"source": "mrds", "name": "Intalco Aluminum Plant", "type": "Unknown", "weight": 3.0}}, {"type": "Feature", "geometry": {"type": "Point", "coordinates": [-122.91792, 46.4962]}, "properties": {"source": "mrds", "name": "Winlock Placer", "type": "Unknown", "weight": 0.5}}, {"type": "Feature", "geometry": {"type": "Point", "coordinates": [-122.36872, 47.2595]}, "properties": {"source": "mrds", "name": "Tacoma Reduction Plant", "type": "Unknown", "weight": 1.0}}, {"type": "Feature", "geometry": {"type": "Point", "coordinates": [-122.06064, 48.49061]}, "properties": {"source": "mrds", "name": "Lyman", "type": "Unknown", "weight": 0.5}}, {"type": "Feature", "geometry": {"type": "Point", "coordinates": [-121.36792, 48.60292]}, "properties": {"source": "mrds", "name": "Alvard", "type": "Unknown", "weight": 3.0}}, {"type": "Feature", "geometry": {"type": "Point", "coordinates": [-118.07222, 48.65155]}, "properties": {"source": "mrds", "name": "Lonnie Richards", "type": "Unknown", "weight": 0.5}}, {"type": "Feature", "geometry": {"type": "Point", "coordinates": [-116.10787, 43.87018]}, "properties": {"source": "mrds", "name": "Castle View Claims", "type": "Unknown", "weight": 0.5}}, {"type": "Feature", "geometry": {"type": "Point", "coordinates": [-115.02814, 44.25768]}, "properties": {"source": "mrds", "name": "Stanley Lake Creek Placer", "type": "Unknown", "weight": 1.0}}, {"type": "Feature", "geometry": {"type": "Point", "coordinates": [-116.42602, 46.57376]}, "properties": {"source": "mrds", "name": "Cavendish Summit", "type": "Unknown", "weight": 0.5}}, {"type": "Feature", "geometry": {"type": "Point", "coordinates": [-114.12058, 42.14211]}, "properties": {"source": "mrds", "name": "Trapper Creek #2", "type": "Unknown", "weight": 1.0}}, {"type": "Feature", "geometry": {"type": "Point", "coordinates": [-116.40462, 46.61426]}, "properties": {"source": "mrds", "name": "Herb Olson Prospect", "type": "Unknown", "weight": 1.0}}, {"type": "Feature", "geometry": {"type": "Point", "coordinates": [-115.32315, 44.18048]}, "properties": {"source": "mrds", "name": "Warm Springs Creek Placers", "type": "Unknown", "weight": 1.0}}, {"type": "Feature", "geometry": {"type": "Point", "coordinates": [-116.01928, 44.82457]}, "properties": {"source": "mrds", "name": "Lake Fork Creek", "type": "Unknown", "weight": 1.0}}, {"type": "Feature", "geometry": {"type": "Point", "coordinates": [-115.61456, 44.38658]}, "properties": {"source": "mrds", "name": "Deadwood Placers", "type": "Unknown", "weight": 0.5}}, {"type": "Feature", "geometry": {"type": "Point", "coordinates": [-114.477, 42.9241]}, "properties": {"source": "mrds", "name": "Frank E Wilson Ranch Placer", "type": "Unknown", "weight": 1.0}}, {"type": "Feature", "geometry": {"type": "Point", "coordinates": [-115.45125, 44.34428]}, "properties": {"source": "mrds", "name": "Sack Creek Placer", "type": "Unknown", "weight": 1.0}}, {"type": "Feature", "geometry": {"type": "Point", "coordinates": [-115.77678, 45.36797]}, "properties": {"source": "mrds", "name": "Cal-Creek Placer", "type": "Unknown", "weight": 1.0}}, {"type": "Feature", "geometry": {"type": "Point", "coordinates": [-115.69178, 45.41157]}, "properties": {"source": "mrds", "name": "Wallis Prospect", "type": "Unknown", "weight": 1.0}}, {"type": "Feature", "geometry": {"type": "Point", "coordinates": [-116.40792, 46.63096]}, "properties": {"source": "mrds", "name": "Olson Prospect", "type": "Unknown", "weight": 1.0}}, {"type": "Feature", "geometry": {"type": "Point", "coordinates": [-114.45312, 44.43909]}, "properties": {"source": "mrds", "name": "Edna Claims", "type": "Unknown", "weight": 1.0}}, {"type": "Feature", "geometry": {"type": "Point", "coordinates": [-113.4806, 44.94769]}, "properties": {"source": "mrds", "name": "Contact Prospect", "type": "Unknown", "weight": 0.5}}, {"type": "Feature", "geometry": {"type": "Point", "coordinates": [-114.67036, 46.28048]}, "properties": {"source": "mrds", "name": "East Fork Moose Creek", "type": "Unknown", "weight": 1.0}}, {"type": "Feature", "geometry": {"type": "Point", "coordinates": [-113.4792, 44.97409]}, "properties": {"source": "mrds", "name": "Black Bull Fraction No. 4 Deposit", "type": "Unknown", "weight": 1.0}}, {"type": "Feature", "geometry": {"type": "Point", "coordinates": [-123.04949, 44.69421]}, "properties": {"source": "mrds", "name": "Smith-Butler", "type": "Unknown", "weight": 0.5}}, {"type": "Feature", "geometry": {"type": "Point", "coordinates": [-124.06435, 46.30789]}, "properties": {"source": "mrds", "name": "Beards Hollow Placer", "type": "Unknown", "weight": 0.5}}, {"type": "Feature", "geometry": {"type": "Point", "coordinates": [-113.71087, 42.03961]}, "properties": {"source": "mrds", "name": "Almo Basin", "type": "Unknown", "weight": 1.0}}, {"type": "Feature", "geometry": {"type": "Point", "coordinates": [-115.16424, 44.35488]}, "properties": {"source": "mrds", "name": "Thatcher Creek Placer", "type": "Unknown", "weight": 1.0}}, {"type": "Feature", "geometry": {"type": "Point", "coordinates": [-115.23455, 44.30798]}, "properties": {"source": "mrds", "name": "Bench Creek Placer", "type": "Unknown", "weight": 1.0}}, {"type": "Feature", "geometry": {"type": "Point", "coordinates": [-113.64916, 42.11241]}, "properties": {"source": "mrds", "name": "Almo Basin-Graham Creek", "type": "Unknown", "weight": 1.0}}, {"type": "Feature", "geometry": {"type": "Point", "coordinates": [-116.02038, 44.84487]}, "properties": {"source": "mrds", "name": "Boulder Creek Placer", "type": "Unknown", "weight": 1.0}}, {"type": "Feature", "geometry": {"type": "Point", "coordinates": [-113.4942, 44.89319]}, "properties": {"source": "mrds", "name": "Big Thor Nos. 1 and 2 Vein Prospect", "type": "Unknown", "weight": 0.5}}, {"type": "Feature", "geometry": {"type": "Point", "coordinates": [-115.07515, 45.15958]}, "properties": {"source": "mrds", "name": "No Name Claim", "type": "Unknown", "weight": 1.0}}, {"type": "Feature", "geometry": {"type": "Point", "coordinates": [-113.89902, 45.55739]}, "properties": {"source": "mrds", "name": "Dahlonega Creek Heavy Min. Placers", "type": "Unknown", "weight": 0.5}}, {"type": "Feature", "geometry": {"type": "Point", "coordinates": [-115.97737, 44.50877]}, "properties": {"source": "mrds", "name": "Pearsol Creek", "type": "Unknown", "weight": 1.0}}, {"type": "Feature", "geometry": {"type": "Point", "coordinates": [-122.91681, 45.8887]}, "properties": {"source": "mrds", "name": "Columbia County Bauxite", "type": "Unknown", "weight": 0.5}}, {"type": "Feature", "geometry": {"type": "Point", "coordinates": [-124.02065, 46.27479]}, "properties": {"source": "mrds", "name": "Sand Island Placer", "type": "Unknown", "weight": 0.5}}, {"type": "Feature", "geometry": {"type": "Point", "coordinates": [-122.92679, 44.88401]}, "properties": {"source": "mrds", "name": "Waldo Hills Bauxite", "type": "Unknown", "weight": 0.5}}, {"type": "Feature", "geometry": {"type": "Point", "coordinates": [-119.04414, 43.19706]}, "properties": {"source": "mrds", "name": "Harney Lake Feldspar", "type": "Unknown", "weight": 0.5}}, {"type": "Feature", "geometry": {"type": "Point", "coordinates": [-122.54838, 45.11421]}, "properties": {"source": "mrds", "name": "Molalla Clay", "type": "Unknown", "weight": 1.0}}, {"type": "Feature", "geometry": {"type": "Point", "coordinates": [-123.01194, 42.45153]}, "properties": {"source": "mrds", "name": "Victory Nos. 1-4", "type": "Unknown", "weight": 1.0}}, {"type": "Feature", "geometry": {"type": "Point", "coordinates": [-122.8345, 45.7498]}, "properties": {"source": "mrds", "name": "Scapoose-St. Helens Bauxite", "type": "Unknown", "weight": 0.5}}, {"type": "Feature", "geometry": {"type": "Point", "coordinates": [-123.1631, 45.352]}, "properties": {"source": "mrds", "name": "Yamhill Bauxite Deposit", "type": "Unknown", "weight": 1.0}}, {"type": "Feature", "geometry": {"type": "Point", "coordinates": [-123.05011, 45.6776]}, "properties": {"source": "mrds", "name": "Pumpkin Ridge Bauxite", "type": "Unknown", "weight": 0.5}}, {"type": "Feature", "geometry": {"type": "Point", "coordinates": [-122.9881, 45.6862]}, "properties": {"source": "mrds", "name": "Washington-Multnomah Area", "type": "Unknown", "weight": 1.0}}, {"type": "Feature", "geometry": {"type": "Point", "coordinates": [-117.16494, 46.42596]}, "properties": {"source": "mrds", "name": "Snake River Placers", "type": "Unknown", "weight": 1.0}}, {"type": "Feature", "geometry": {"type": "Point", "coordinates": [-120.80679, 47.92762]}, "properties": {"source": "mrds", "name": "Williamsragingcreek", "type": "Unknown", "weight": 1.0}}, {"type": "Feature", "geometry": {"type": "Point", "coordinates": [-120.27197, 47.64903]}, "properties": {"source": "mrds", "name": "Lockwood and Cole", "type": "Unknown", "weight": 0.5}}, {"type": "Feature", "geometry": {"type": "Point", "coordinates": [-120.35727, 47.70813]}, "properties": {"source": "mrds", "name": "Entiat", "type": "Unknown", "weight": 0.5}}, {"type": "Feature", "geometry": {"type": "Point", "coordinates": [-121.37732, 48.56292]}, "properties": {"source": "mrds", "name": "Londonderry", "type": "Unknown", "weight": 3.0}}, {"type": "Feature", "geometry": {"type": "Point", "coordinates": [-117.25107, 47.54816]}, "properties": {"source": "mrds", "name": "Excelsior", "type": "Unknown", "weight": 1.0}}, {"type": "Feature", "geometry": {"type": "Point", "coordinates": [-118.57643, 48.60515]}, "properties": {"source": "mrds", "name": "Republic", "type": "Unknown", "weight": 1.0}}, {"type": "Feature", "geometry": {"type": "Point", "coordinates": [-122.27155, 48.61091]}, "properties": {"source": "mrds", "name": "Alger", "type": "Unknown", "weight": 0.5}}, {"type": "Feature", "geometry": {"type": "Point", "coordinates": [-120.60089, 48.20152]}, "properties": {"source": "mrds", "name": "Muriel Ann", "type": "Unknown", "weight": 1.0}}, {"type": "Feature", "geometry": {"type": "Point", "coordinates": [-122.38678, 45.59651]}, "properties": {"source": "mrds", "name": "Camas Placer", "type": "Unknown", "weight": 1.0}}, {"type": "Feature", "geometry": {"type": "Point", "coordinates": [-121.69154, 48.94561]}, "properties": {"source": "mrds", "name": "Quartz Mountain Prospects", "type": "Unknown", "weight": 1.0}}, {"type": "Feature", "geometry": {"type": "Point", "coordinates": [-120.81949, 47.91562]}, "properties": {"source": "mrds", "name": "Sledgehammer", "type": "Unknown", "weight": 1.0}}, {"type": "Feature", "geometry": {"type": "Point", "coordinates": [-121.38432, 48.59542]}, "properties": {"source": "mrds", "name": "Dads Girl Claim", "type": "Unknown", "weight": 3.0}}, {"type": "Feature", "geometry": {"type": "Point", "coordinates": [-113.72007, 42.08301]}, "properties": {"source": "mrds", "name": "Almo Basin-Circle Creek #1", "type": "Unknown", "weight": 1.0}}, {"type": "Feature", "geometry": {"type": "Point", "coordinates": [-114.62456, 46.31738]}, "properties": {"source": "mrds", "name": "Hoodoo Ilmenite Placer", "type": "Unknown", "weight": 1.0}}, {"type": "Feature", "geometry": {"type": "Point", "coordinates": [-116.01489, 45.42767]}, "properties": {"source": "mrds", "name": "Edna L D-Square Ferry Placers", "type": "Unknown", "weight": 1.0}}, {"type": "Feature", "geometry": {"type": "Point", "coordinates": [-115.19375, 44.36548]}, "properties": {"source": "mrds", "name": "Cape Horn Creek Placer", "type": "Unknown", "weight": 1.0}}, {"type": "Feature", "geometry": {"type": "Point", "coordinates": [-115.42455, 44.33928]}, "properties": {"source": "mrds", "name": "Cache Creek Placer", "type": "Unknown", "weight": 1.0}}, {"type": "Feature", "geometry": {"type": "Point", "coordinates": [-115.46785, 44.27548]}, "properties": {"source": "mrds", "name": "Rainier", "type": "Unknown", "weight": 1.0}}, {"type": "Feature", "geometry": {"type": "Point", "coordinates": [-114.52233, 44.98518]}, "properties": {"source": "mrds", "name": "Yellow Jacket Placers", "type": "Unknown", "weight": 0.5}}, {"type": "Feature", "geometry": {"type": "Point", "coordinates": [-115.99908, 45.16487]}, "properties": {"source": "mrds", "name": "Squaw Meadows", "type": "Unknown", "weight": 1.0}}, {"type": "Feature", "geometry": {"type": "Point", "coordinates": [-114.07343, 45.37379]}, "properties": {"source": "mrds", "name": "Pamela Rose", "type": "Unknown", "weight": 1.0}}, {"type": "Feature", "geometry": {"type": "Point", "coordinates": [-115.46785, 44.27548]}, "properties": {"source": "mrds", "name": "Big 4 and Big 4 No. Two", "type": "Unknown", "weight": 1.0}}, {"type": "Feature", "geometry": {"type": "Point", "coordinates": [-123.42254, 42.00813]}, "properties": {"source": "mrds", "name": "Lucky Penny Prospect", "type": "Unknown", "weight": 1.0}}, {"type": "Feature", "geometry": {"type": "Point", "coordinates": [-123.32005, 42.26172]}, "properties": {"source": "mrds", "name": "Pugh Soapstone", "type": "Unknown", "weight": 1.0}}, {"type": "Feature", "geometry": {"type": "Point", "coordinates": [-124.05811, 44.6581]}, "properties": {"source": "mrds", "name": "Big Creek Ilmenite", "type": "Unknown", "weight": 0.5}}, {"type": "Feature", "geometry": {"type": "Point", "coordinates": [-121.20675, 45.62402]}, "properties": {"source": "mrds", "name": "(Facility) the Dalles Aluminum Smelter", "type": "Unknown", "weight": 1.0}}, {"type": "Feature", "geometry": {"type": "Point", "coordinates": [-123.07451, 45.7098]}, "properties": {"source": "mrds", "name": "Red Flat Hill Bauxite", "type": "Unknown", "weight": 1.0}}, {"type": "Feature", "geometry": {"type": "Point", "coordinates": [-120.72838, 47.64812]}, "properties": {"source": "mrds", "name": "Tumwater Canyon", "type": "Unknown", "weight": 0.5}}, {"type": "Feature", "geometry": {"type": "Point", "coordinates": [-120.32476, 47.42263]}, "properties": {"source": "mrds", "name": "(Facility) Wenatchee Aluminum Smelter", "type": "Unknown", "weight": 1.0}}, {"type": "Feature", "geometry": {"type": "Point", "coordinates": [-124.67881, 48.01588]}, "properties": {"source": "mrds", "name": "Cedar Creek Placer", "type": "Unknown", "weight": 1.0}}, {"type": "Feature", "geometry": {"type": "Point", "coordinates": [-124.07765, 46.27729]}, "properties": {"source": "mrds", "name": "Fort Canby Placer", "type": "Unknown", "weight": 1.0}}, {"type": "Feature", "geometry": {"type": "Point", "coordinates": [-118.57503, 48.54655]}, "properties": {"source": "mrds", "name": "Wiseman", "type": "Unknown", "weight": 0.5}}, {"type": "Feature", "geometry": {"type": "Point", "coordinates": [-115.8007, 46.49097]}, "properties": {"source": "mrds", "name": "Pierce City District", "type": "STREAM PLACER", "weight": 3.0}}, {"type": "Feature", "geometry": {"type": "Point", "coordinates": [-116.64238, 44.885463]}, "properties": {"source": "usmin", "name": "", "type": "Adit", "weight": 2.0}}, {"type": "Feature", "geometry": {"type": "Point", "coordinates": [-114.831641, 44.261891]}, "properties": {"source": "usmin", "name": "", "type": "Adit", "weight": 2.0}}, {"type": "Feature", "geometry": {"type": "Point", "coordinates": [-114.85823, 44.249128]}, "properties": {"source": "usmin", "name": "Mine", "type": "Adit", "weight": 2.0}}, {"type": "Feature", "geometry": {"type": "Point", "coordinates": [-114.845666, 44.255109]}, "properties": {"source": "usmin", "name": "", "type": "Adit", "weight": 2.0}}, {"type": "Feature", "geometry": {"type": "Point", "coordinates": [-114.634978, 44.253333]}, "properties": {"source": "usmin", "name": "", "type": "Adit", "weight": 2.0}}, {"type": "Feature", "geometry": {"type": "Point", "coordinates": [-115.070423, 44.286594]}, "properties": {"source": "usmin", "name": "", "type": "Adit", "weight": 2.0}}, {"type": "Feature", "geometry": {"type": "Point", "coordinates": [-115.289621, 43.688106]}, "properties": {"source": "usmin", "name": "", "type": "Adit", "weight": 2.0}}, {"type": "Feature", "geometry": {"type": "Point", "coordinates": [-115.290334, 43.695752]}, "properties": {"source": "usmin", "name": "", "type": "Adit", "weight": 2.0}}, {"type": "Feature", "geometry": {"type": "Point", "coordinates": [-115.302407, 43.69151]}, "properties": {"source": "usmin", "name": "", "type": "Adit", "weight": 2.0}}, {"type": "Feature", "geometry": {"type": "Point", "coordinates": [-115.301087, 43.691774]}, "properties": {"source": "usmin", "name": "", "type": "Adit", "weight": 2.0}}, {"type": "Feature", "geometry": {"type": "Point", "coordinates": [-115.302799, 43.690043]}, "properties": {"source": "usmin", "name": "", "type": "Adit", "weight": 2.0}}, {"type": "Feature", "geometry": {"type": "Point", "coordinates": [-115.461205, 45.544915]}, "properties": {"source": "usmin", "name": "", "type": "Adit", "weight": 2.0}}, {"type": "Feature", "geometry": {"type": "Point", "coordinates": [-115.460587, 45.539219]}, "properties": {"source": "usmin", "name": "Penn Dixie Mine", "type": "Adit", "weight": 2.0}}, {"type": "Feature", "geometry": {"type": "Point", "coordinates": [-115.512216, 45.378589]}, "properties": {"source": "usmin", "name": "", "type": "Adit", "weight": 2.0}}, {"type": "Feature", "geometry": {"type": "Point", "coordinates": [-115.461041, 45.539386]}, "properties": {"source": "usmin", "name": "", "type": "Adit", "weight": 2.0}}, {"type": "Feature", "geometry": {"type": "Point", "coordinates": [-115.46218, 45.541124]}, "properties": {"source": "usmin", "name": "", "type": "Adit", "weight": 2.0}}, {"type": "Feature", "geometry": {"type": "Point", "coordinates": [-115.071714, 45.197948]}, "properties": {"source": "usmin", "name": "", "type": "Adit", "weight": 2.0}}, {"type": "Feature", "geometry": {"type": "Point", "coordinates": [-115.09016, 45.197718]}, "properties": {"source": "usmin", "name": "", "type": "Adit", "weight": 2.0}}, {"type": "Feature", "geometry": {"type": "Point", "coordinates": [-115.466251, 45.544116]}, "properties": {"source": "usmin", "name": "", "type": "Adit", "weight": 2.0}}, {"type": "Feature", "geometry": {"type": "Point", "coordinates": [-115.070979, 45.198688]}, "properties": {"source": "usmin", "name": "", "type": "Adit", "weight": 2.0}}, {"type": "Feature", "geometry": {"type": "Point", "coordinates": [-115.468798, 45.541081]}, "properties": {"source": "usmin", "name": "", "type": "Adit", "weight": 2.0}}, {"type": "Feature", "geometry": {"type": "Point", "coordinates": [-115.46072, 45.539429]}, "properties": {"source": "usmin", "name": "", "type": "Adit", "weight": 2.0}}, {"type": "Feature", "geometry": {"type": "Point", "coordinates": [-115.454932, 45.537923]}, "properties": {"source": "usmin", "name": "", "type": "Adit", "weight": 2.0}}, {"type": "Feature", "geometry": {"type": "Point", "coordinates": [-115.47053, 45.546665]}, "properties": {"source": "usmin", "name": "", "type": "Adit", "weight": 2.0}}, {"type": "Feature", "geometry": {"type": "Point", "coordinates": [-115.464313, 45.550816]}, "properties": {"source": "usmin", "name": "", "type": "Adit", "weight": 2.0}}, {"type": "Feature", "geometry": {"type": "Point", "coordinates": [-116.020347, 45.517233]}, "properties": {"source": "usmin", "name": "", "type": "Adit", "weight": 2.0}}, {"type": "Feature", "geometry": {"type": "Point", "coordinates": [-115.461663, 45.423231]}, "properties": {"source": "usmin", "name": "Painter Mine", "type": "Adit", "weight": 2.0}}, {"type": "Feature", "geometry": {"type": "Point", "coordinates": [-115.469635, 45.543762]}, "properties": {"source": "usmin", "name": "Ontario Mine", "type": "Adit", "weight": 2.0}}, {"type": "Feature", "geometry": {"type": "Point", "coordinates": [-114.50476, 44.854688]}, "properties": {"source": "usmin", "name": "Big Lead Mine", "type": "Adit", "weight": 2.0}}, {"type": "Feature", "geometry": {"type": "Point", "coordinates": [-113.478398, 44.979621]}, "properties": {"source": "usmin", "name": "", "type": "Adit", "weight": 2.0}}, {"type": "Feature", "geometry": {"type": "Point", "coordinates": [-113.471337, 44.957608]}, "properties": {"source": "usmin", "name": "", "type": "Adit", "weight": 2.0}}, {"type": "Feature", "geometry": {"type": "Point", "coordinates": [-113.476819, 44.969461]}, "properties": {"source": "usmin", "name": "", "type": "Adit", "weight": 2.0}}, {"type": "Feature", "geometry": {"type": "Point", "coordinates": [-114.068811, 45.385406]}, "properties": {"source": "usmin", "name": "", "type": "Adit", "weight": 2.0}}, {"type": "Feature", "geometry": {"type": "Point", "coordinates": [-114.524214, 44.988909]}, "properties": {"source": "usmin", "name": "", "type": "Adit", "weight": 2.0}}, {"type": "Feature", "geometry": {"type": "Point", "coordinates": [-113.478009, 44.979917]}, "properties": {"source": "usmin", "name": "", "type": "Adit", "weight": 2.0}}, {"type": "Feature", "geometry": {"type": "Point", "coordinates": [-114.068757, 45.385035]}, "properties": {"source": "usmin", "name": "", "type": "Adit", "weight": 2.0}}, {"type": "Feature", "geometry": {"type": "Point", "coordinates": [-113.474944, 44.968657]}, "properties": {"source": "usmin", "name": "", "type": "Adit", "weight": 2.0}}, {"type": "Feature", "geometry": {"type": "Point", "coordinates": [-114.504439, 44.853843]}, "properties": {"source": "usmin", "name": "", "type": "Adit", "weight": 2.0}}, {"type": "Feature", "geometry": {"type": "Point", "coordinates": [-113.909881, 45.560785]}, "properties": {"source": "usmin", "name": "Mine", "type": "Adit", "weight": 2.0}}, {"type": "Feature", "geometry": {"type": "Point", "coordinates": [-116.038049, 47.517048]}, "properties": {"source": "usmin", "name": "", "type": "Adit", "weight": 2.0}}, {"type": "Feature", "geometry": {"type": "Point", "coordinates": [-116.030478, 47.511356]}, "properties": {"source": "usmin", "name": "", "type": "Adit", "weight": 2.0}}, {"type": "Feature", "geometry": {"type": "Point", "coordinates": [-115.153375, 44.955114]}, "properties": {"source": "usmin", "name": "", "type": "Adit", "weight": 2.0}}, {"type": "Feature", "geometry": {"type": "Point", "coordinates": [-115.200008, 45.179053]}, "properties": {"source": "usmin", "name": "", "type": "Adit", "weight": 2.0}}, {"type": "Feature", "geometry": {"type": "Point", "coordinates": [-115.153956, 44.956078]}, "properties": {"source": "usmin", "name": "", "type": "Adit", "weight": 2.0}}, {"type": "Feature", "geometry": {"type": "Point", "coordinates": [-115.134366, 44.954847]}, "properties": {"source": "usmin", "name": "Sunnyside Mine", "type": "Adit", "weight": 2.0}}, {"type": "Feature", "geometry": {"type": "Point", "coordinates": [-115.1395, 44.950679]}, "properties": {"source": "usmin", "name": "", "type": "Adit", "weight": 2.0}}, {"type": "Feature", "geometry": {"type": "Point", "coordinates": [-115.1509, 44.9587]}, "properties": {"source": "usmin", "name": "", "type": "Adit", "weight": 2.0}}, {"type": "Feature", "geometry": {"type": "Point", "coordinates": [-115.198617, 45.17871]}, "properties": {"source": "usmin", "name": "", "type": "Adit", "weight": 2.0}}, {"type": "Feature", "geometry": {"type": "Point", "coordinates": [-115.070358, 45.198275]}, "properties": {"source": "usmin", "name": "Snowshoe Mine", "type": "Mine Shaft", "weight": 2.0}}, {"type": "Feature", "geometry": {"type": "Point", "coordinates": [-115.470872, 45.546902]}, "properties": {"source": "usmin", "name": "Dixie Queen Mine", "type": "Mine Shaft", "weight": 2.0}}, {"type": "Feature", "geometry": {"type": "Point", "coordinates": [-115.465529, 45.543322]}, "properties": {"source": "usmin", "name": "Juanita Mine", "type": "Mine Shaft", "weight": 2.0}}, {"type": "Feature", "geometry": {"type": "Point", "coordinates": [-113.476676, 44.968909]}, "properties": {"source": "usmin", "name": "Copper Queen Mine", "type": "Mine Shaft", "weight": 2.0}}, {"type": "Feature", "geometry": {"type": "Point", "coordinates": [-113.475948, 44.968567]}, "properties": {"source": "usmin", "name": "", "type": "Mine Shaft", "weight": 2.0}}, {"type": "Feature", "geometry": {"type": "Point", "coordinates": [-115.14612, 44.948905]}, "properties": {"source": "usmin", "name": "", "type": "Mine Shaft", "weight": 2.0}}, {"type": "Feature", "geometry": {"type": "Point", "coordinates": [-116.63742, 44.891775]}, "properties": {"source": "usmin", "name": "", "type": "Prospect Pit", "weight": 1.0}}, {"type": "Feature", "geometry": {"type": "Point", "coordinates": [-116.634946, 44.892635]}, "properties": {"source": "usmin", "name": "", "type": "Prospect Pit", "weight": 1.0}}, {"type": "Feature", "geometry": {"type": "Point", "coordinates": [-116.642025, 44.887298]}, "properties": {"source": "usmin", "name": "", "type": "Prospect Pit", "weight": 1.0}}, {"type": "Feature", "geometry": {"type": "Point", "coordinates": [-114.596211, 44.205508]}, "properties": {"source": "usmin", "name": "", "type": "Prospect Pit", "weight": 1.0}}, {"type": "Feature", "geometry": {"type": "Point", "coordinates": [-114.75205, 44.096854]}, "properties": {"source": "usmin", "name": "", "type": "Prospect Pit", "weight": 1.0}}, {"type": "Feature", "geometry": {"type": "Point", "coordinates": [-116.013439, 45.523743]}, "properties": {"source": "usmin", "name": "", "type": "Prospect Pit", "weight": 1.0}}, {"type": "Feature", "geometry": {"type": "Point", "coordinates": [-115.827165, 45.271138]}, "properties": {"source": "usmin", "name": "", "type": "Prospect Pit", "weight": 1.0}}, {"type": "Feature", "geometry": {"type": "Point", "coordinates": [-115.46678, 45.544707]}, "properties": {"source": "usmin", "name": "", "type": "Prospect Pit", "weight": 1.0}}, {"type": "Feature", "geometry": {"type": "Point", "coordinates": [-115.463978, 45.552598]}, "properties": {"source": "usmin", "name": "", "type": "Prospect Pit", "weight": 1.0}}, {"type": "Feature", "geometry": {"type": "Point", "coordinates": [-116.017223, 45.520342]}, "properties": {"source": "usmin", "name": "", "type": "Prospect Pit", "weight": 1.0}}, {"type": "Feature", "geometry": {"type": "Point", "coordinates": [-115.465527, 45.542688]}, "properties": {"source": "usmin", "name": "", "type": "Prospect Pit", "weight": 1.0}}, {"type": "Feature", "geometry": {"type": "Point", "coordinates": [-115.46845, 45.543065]}, "properties": {"source": "usmin", "name": "", "type": "Prospect Pit", "weight": 1.0}}, {"type": "Feature", "geometry": {"type": "Point", "coordinates": [-115.46525, 45.54938]}, "properties": {"source": "usmin", "name": "", "type": "Prospect Pit", "weight": 1.0}}, {"type": "Feature", "geometry": {"type": "Point", "coordinates": [-115.470904, 45.54651]}, "properties": {"source": "usmin", "name": "", "type": "Prospect Pit", "weight": 1.0}}, {"type": "Feature", "geometry": {"type": "Point", "coordinates": [-115.465491, 45.551375]}, "properties": {"source": "usmin", "name": "", "type": "Prospect Pit", "weight": 1.0}}, {"type": "Feature", "geometry": {"type": "Point", "coordinates": [-116.021092, 45.524367]}, "properties": {"source": "usmin", "name": "", "type": "Prospect Pit", "weight": 1.0}}, {"type": "Feature", "geometry": {"type": "Point", "coordinates": [-115.470586, 45.54413]}, "properties": {"source": "usmin", "name": "", "type": "Prospect Pit", "weight": 1.0}}, {"type": "Feature", "geometry": {"type": "Point", "coordinates": [-115.077181, 45.19908]}, "properties": {"source": "usmin", "name": "", "type": "Prospect Pit", "weight": 1.0}}, {"type": "Feature", "geometry": {"type": "Point", "coordinates": [-115.828581, 45.270236]}, "properties": {"source": "usmin", "name": "", "type": "Prospect Pit", "weight": 1.0}}, {"type": "Feature", "geometry": {"type": "Point", "coordinates": [-115.466026, 45.543711]}, "properties": {"source": "usmin", "name": "", "type": "Prospect Pit", "weight": 1.0}}, {"type": "Feature", "geometry": {"type": "Point", "coordinates": [-115.449965, 45.538545]}, "properties": {"source": "usmin", "name": "", "type": "Prospect Pit", "weight": 1.0}}, {"type": "Feature", "geometry": {"type": "Point", "coordinates": [-115.457903, 45.538255]}, "properties": {"source": "usmin", "name": "", "type": "Prospect Pit", "weight": 1.0}}, {"type": "Feature", "geometry": {"type": "Point", "coordinates": [-113.450084, 44.962577]}, "properties": {"source": "usmin", "name": "", "type": "Prospect Pit", "weight": 1.0}}, {"type": "Feature", "geometry": {"type": "Point", "coordinates": [-113.456778, 44.95645]}, "properties": {"source": "usmin", "name": "", "type": "Prospect Pit", "weight": 1.0}}, {"type": "Feature", "geometry": {"type": "Point", "coordinates": [-114.517269, 44.991069]}, "properties": {"source": "usmin", "name": "", "type": "Prospect Pit", "weight": 1.0}}, {"type": "Feature", "geometry": {"type": "Point", "coordinates": [-113.475179, 44.984674]}, "properties": {"source": "usmin", "name": "", "type": "Prospect Pit", "weight": 1.0}}, {"type": "Feature", "geometry": {"type": "Point", "coordinates": [-113.475334, 44.94958]}, "properties": {"source": "usmin", "name": "", "type": "Prospect Pit", "weight": 1.0}}, {"type": "Feature", "geometry": {"type": "Point", "coordinates": [-113.457297, 44.967842]}, "properties": {"source": "usmin", "name": "", "type": "Prospect Pit", "weight": 1.0}}, {"type": "Feature", "geometry": {"type": "Point", "coordinates": [-113.453396, 44.965415]}, "properties": {"source": "usmin", "name": "", "type": "Prospect Pit", "weight": 1.0}}, {"type": "Feature", "geometry": {"type": "Point", "coordinates": [-113.460892, 44.952675]}, "properties": {"source": "usmin", "name": "", "type": "Prospect Pit", "weight": 1.0}}, {"type": "Feature", "geometry": {"type": "Point", "coordinates": [-113.474597, 44.975946]}, "properties": {"source": "usmin", "name": "", "type": "Prospect Pit", "weight": 1.0}}, {"type": "Feature", "geometry": {"type": "Point", "coordinates": [-113.450141, 44.970074]}, "properties": {"source": "usmin", "name": "", "type": "Prospect Pit", "weight": 1.0}}, {"type": "Feature", "geometry": {"type": "Point", "coordinates": [-113.485485, 44.986415]}, "properties": {"source": "usmin", "name": "", "type": "Prospect Pit", "weight": 1.0}}, {"type": "Feature", "geometry": {"type": "Point", "coordinates": [-113.461744, 44.952223]}, "properties": {"source": "usmin", "name": "", "type": "Prospect Pit", "weight": 1.0}}, {"type": "Feature", "geometry": {"type": "Point", "coordinates": [-113.45572, 44.956191]}, "properties": {"source": "usmin", "name": "", "type": "Prospect Pit", "weight": 1.0}}, {"type": "Feature", "geometry": {"type": "Point", "coordinates": [-113.45455, 44.965387]}, "properties": {"source": "usmin", "name": "", "type": "Prospect Pit", "weight": 1.0}}, {"type": "Feature", "geometry": {"type": "Point", "coordinates": [-113.460712, 44.972034]}, "properties": {"source": "usmin", "name": "", "type": "Prospect Pit", "weight": 1.0}}, {"type": "Feature", "geometry": {"type": "Point", "coordinates": [-113.448674, 44.963976]}, "properties": {"source": "usmin", "name": "", "type": "Prospect Pit", "weight": 1.0}}, {"type": "Feature", "geometry": {"type": "Point", "coordinates": [-113.467498, 44.957461]}, "properties": {"source": "usmin", "name": "", "type": "Prospect Pit", "weight": 1.0}}, {"type": "Feature", "geometry": {"type": "Point", "coordinates": [-113.480879, 44.962714]}, "properties": {"source": "usmin", "name": "", "type": "Prospect Pit", "weight": 1.0}}, {"type": "Feature", "geometry": {"type": "Point", "coordinates": [-113.473581, 44.949255]}, "properties": {"source": "usmin", "name": "", "type": "Prospect Pit", "weight": 1.0}}, {"type": "Feature", "geometry": {"type": "Point", "coordinates": [-113.458713, 44.96903]}, "properties": {"source": "usmin", "name": "", "type": "Prospect Pit", "weight": 1.0}}, {"type": "Feature", "geometry": {"type": "Point", "coordinates": [-113.461751, 44.971058]}, "properties": {"source": "usmin", "name": "", "type": "Prospect Pit", "weight": 1.0}}, {"type": "Feature", "geometry": {"type": "Point", "coordinates": [-113.448177, 44.958911]}, "properties": {"source": "usmin", "name": "", "type": "Prospect Pit", "weight": 1.0}}, {"type": "Feature", "geometry": {"type": "Point", "coordinates": [-113.485592, 44.98908]}, "properties": {"source": "usmin", "name": "", "type": "Prospect Pit", "weight": 1.0}}, {"type": "Feature", "geometry": {"type": "Point", "coordinates": [-113.454556, 44.966894]}, "properties": {"source": "usmin", "name": "", "type": "Prospect Pit", "weight": 1.0}}, {"type": "Feature", "geometry": {"type": "Point", "coordinates": [-113.455218, 44.968025]}, "properties": {"source": "usmin", "name": "", "type": "Prospect Pit", "weight": 1.0}}, {"type": "Feature", "geometry": {"type": "Point", "coordinates": [-113.474374, 44.949272]}, "properties": {"source": "usmin", "name": "", "type": "Prospect Pit", "weight": 1.0}}, {"type": "Feature", "geometry": {"type": "Point", "coordinates": [-113.46223, 44.952737]}, "properties": {"source": "usmin", "name": "", "type": "Prospect Pit", "weight": 1.0}}, {"type": "Feature", "geometry": {"type": "Point", "coordinates": [-113.460152, 44.972519]}, "properties": {"source": "usmin", "name": "", "type": "Prospect Pit", "weight": 1.0}}, {"type": "Feature", "geometry": {"type": "Point", "coordinates": [-113.477784, 44.950111]}, "properties": {"source": "usmin", "name": "", "type": "Prospect Pit", "weight": 1.0}}, {"type": "Feature", "geometry": {"type": "Point", "coordinates": [-113.447492, 44.964701]}, "properties": {"source": "usmin", "name": "", "type": "Prospect Pit", "weight": 1.0}}, {"type": "Feature", "geometry": {"type": "Point", "coordinates": [-113.47671, 44.949894]}, "properties": {"source": "usmin", "name": "", "type": "Prospect Pit", "weight": 1.0}}, {"type": "Feature", "geometry": {"type": "Point", "coordinates": [-113.453322, 44.952597]}, "properties": {"source": "usmin", "name": "", "type": "Prospect Pit", "weight": 1.0}}, {"type": "Feature", "geometry": {"type": "Point", "coordinates": [-113.459655, 44.971577]}, "properties": {"source": "usmin", "name": "", "type": "Prospect Pit", "weight": 1.0}}, {"type": "Feature", "geometry": {"type": "Point", "coordinates": [-113.454424, 44.967762]}, "properties": {"source": "usmin", "name": "", "type": "Prospect Pit", "weight": 1.0}}, {"type": "Feature", "geometry": {"type": "Point", "coordinates": [-113.477732, 44.991303]},